index,brewery_id,brewery_name,city,state,address,zip,country,lat,lon
0,1075,Caldera Brewing Company,Ashland,Oregon,590 Clover Lane,97520,United States,42.1819009,-122.662854
1,1454,Broad Ripple Brew Pub,Indianapolis,Indiana,840 E 65th St,46220,United States,39.8736064,-86.1428601
2,850,Moon River Brewing Company,Savannah,Georgia,21 West Bay St.,31401,United States,32.0809609,-81.0920433
3,14879,Hoppin' Frog Brewery,Akron,Ohio,1680 E Waterloo Rd,44306-4523,United States,41.0246252,-81.46769850000001
4,2724,Pacific Coast Brewing Company,Oakland,California,906 Washington St.,94607,United States,37.80150270000001,-122.2741989
5,1386,Harmon Restaurant & Brewery,Tacoma,Washington,1938 Pacific Avenue,98402-3110,United States,47.2437398,-122.4366729
6,12770,City Grille and Brewhaus,Saint Louis,Missouri,3914 Lindell Blvd,63108-3204,United States,38.63876620000001,-90.2417285
7,3207,San Francisco Brewing Company,San Francisco,California,155 Columbus Ave,94133-5114,United States,37.7969298,-122.4055622
8,9020,Yazoo Brewing Company,Madison,Tennessee,900 River Bluff Dr,37115,United States,36.275565,-86.6865119
9,20658,7 Seas Brewery and Taproom,Gig Harbor,Washington,3006 Judson St,98335-1226,United States,47.3272994,-122.5795341
10,15636,Calapooia Brewing Company,Albany,Oregon,140 Hill St. NE,97321,United States,44.6527849,-123.0934734
11,11715,Destiny Brewing Company,Phoenixville,Pennsylvania,119 South Main Street,19460,United States,40.1322526,-75.51539819999999
12,1199,Founders Brewing Company,Grand Rapids,Michigan,235 Grandville Ave SW,49503,United States,42.9583669,-85.67405699999999
13,14756,Bluegrass Brewing Co.,Louisville,Kentucky,300 W Main St,40202-2945,United States,38.2562004,-85.7550888
14,17293,The Stable,Saint Louis,Missouri,1821 Cherokee St,63118-3208,United States,38.5927045,-90.2183843
15,24162,Finger Lakes Beer Company,Hammondsport,New York,8462 State Route 54,14840,United States,42.3993946,-77.225988
16,14589,Rustic Rail Grill And Brewhouse,Green Bay,Wisconsin,1966 Velp Ave.,54313,United States,44.5584251,-88.06098569999999
17,21841,Craggie Brewing Company,Asheville,North Carolina,197 Hilliard Avenue,28801,United States,35.5914,-82.5559911
18,26612,Old Orange Brewing Co.,Orange,California,1444 N. Batavia Street,92867,United States,33.8110985,-117.8635517
19,26983,Rusty Truck Brewing Company / Roadhouse 101,Lincoln City,Oregon,4649 SW Hwy 101,97367,United States,44.930696,-124.0195492
20,26990,NoDa Brewing Company,Charlotte,North Carolina,2229 North Davidson St.,28205,United States,35.2403003,-80.8148104
21,24517,White Bluffs Brewing Company,Richland,Washington,2034 Logston Blvd,99354,United States,46.3199093,-119.2997835
22,5330,Highland Pub & Brewery (McMenamins),Gresham,Oregon,4225 SE 182nd Ave,97030,United States,45.4915163,-122.4757839
23,10912,Golden State Brewing Company,Encino,California,5101 Balboa Boulevard #223,91316,United States,34.1636547,-118.5018536
24,21138,Growler Craft Brewery,Murphys,California,164 E Highway 4,95247,United States,38.1333702,-120.4557008
25,16859,Great South Bay Brewery,Bay Shore,New York,25 Drexel DR,11706,United States,40.7610743,-73.2634515
26,19380,Mariposa Brewing Company,Mariposa,California,"5004 Fairgrounds Dr, PO Box 1576",95338-1576,United States,37.4849377,-119.9662843
27,3087,4th Street Brewing Company,Sioux City,Iowa,301 Lewis Blvd,51101-2237,United States,42.4935742,-96.3790419
28,2188,Third Base Sports Bar & Brewery,Cedar Rapids,Iowa,500 Blairs Ferry Rd NE,52402-1466,United States,42.0351565,-91.6397562
29,365,Pike Pub & Brewery,Seattle,Washington,1415 First Ave,98101,United States,47.6081294,-122.3400794
30,5476,Bootleggers Restaurant & Brewery,Aurora,Missouri,101 S Madison Ave,65605-1426,United States,36.9751245,-93.7211424
31,16994,Ohio Brewing Company,Akron,Ohio,222 S Main St.,44308,United States,41.0793252,-81.5206584
32,971,Crescent City Brewhouse,New Orleans,Louisiana,527 Decatur St,70130-1027,United States,29.9557667,-90.06403879999999
33,14,Cambridge Brewing Company,Cambridge,Massachusetts,1 Kendall Sq,02139-1500,United States,42.3656686,-71.0823956
34,395,Bluegrass Brewing Co. - East St. Matthew's,Louisville,Kentucky,3929 Shelbyville Rd,40207-3120,United States,38.2530363,-85.6538406
35,12003,Emmett's Brewing Company,Palatine,Illinois,110 North Brockway Street,60067,United States,42.1128328,-88.0466242
36,22167,Fulton Beer,Minneapolis,Minnesota,414 6th Ave N,55401-1214,United States,44.9849409,-93.2791745
37,7402,Wasatch Brew Pub,Park City,Utah,250 Main St,84060-5113,United States,40.641799,-111.4945221
38,20988,Becker Brewing Company,Gasport,New York,3760 Quaker Rd.,14067,United States,43.2231128,-78.5635788
39,2310,Great Basin Brewing Co.,Sparks,Nevada,846 Victorian Ave,89431-5275,United States,39.5351159,-119.7540723
40,17204,SBC Restaurant & Brewery - Hamden,Hamden,Connecticut,1950 Dixwell Ave,06514-2403,United States,41.3649686,-72.9229414
41,3268,O'Fallon Brewery,Maryland Heights,Missouri,45 Progress Parkway,63043,United States,38.7047034,-90.4477309
42,936,No-Li Brewhouse,Spokane,Washington,1003 E Trent Ave,98202,United States,47.6627053,-117.3941863
43,2446,Catawba Valley Brewing Company,Morganton,North Carolina,212 S Green St,28655-3525,United States,35.7446917,-81.68563859999999
44,60,Cooperstown Brewing Company,Milford,New York,110 River Street,13807,United States,42.5888903,-74.9414274
45,23022,Ivory Tower Brewing,Boone,North Carolina,363 CAP Building,28608,United States,36.2139148,-81.6795209
46,4078,Bertram's Salmon Valley Brewery & Restaurant,Salmon,Idaho,101 S Andrews St,83467-4246,United States,45.1750356,-113.8933421
47,22288,Mt Tabor Brewing,Vancouver,Washington,3600 NW 119th St,98685,United States,45.7074145,-122.7084837
48,23739,Marco Island Brewery,Marco Island,Florida,1089 N Collier Blvd,34145-2562,United States,25.9533695,-81.723207
49,860,The Vermont Pub & Brewery,Burlington,Vermont,144 College St,05401-8416,United States,44.477262,-73.214394
50,24072,Copper Crow Brewing Company,Lafayette Hill,Pennsylvania,646 Germantown Pike,19444,United States,40.0842208,-75.25032159999999
51,9345,Wm. Kuether Brewing,Clear Lake,Wisconsin,360 Fourth Street,54005,United States,45.25046589999999,-92.2701995
52,1482,The Seven Barrel Brewery,West Lebanon,New Hampshire,5 Airport Rd,03784-1658,United States,43.6304453,-72.3184058
53,26946,Big Hurt Brewing Company,Salinas,California,"340 El Camino Real S, Ste U",93901-4553,United States,36.6255732,-121.5922537
54,5500,Black Forest Brew Haus & Grill,Frankenmuth,Michigan,281 Heinlein Strasse,48734,United States,43.3150024,-83.7337349
55,3965,Anacapa Brewing Company,Ventura,California,472 E. Main Street,93001,United States,34.2806759,-119.2935844
56,21590,Ram Restaurant & Brewery,Clackamas,Oregon,11860 SE 82nd Ave #3050,97806,United States,45.4346178,-122.5753546
57,2464,The Cowboy Restaurant & Brewery,Scottsdale,Arizona,20751 N Pima Rd,85255-5591,United States,33.6746313,-111.8881123
58,14365,Growlers,Gaithersburg,Maryland,227 East Diamond Avenue,20877,United States,39.1419699,-77.1935814
59,1127,Buckhead Brewery and Grill,Alpharetta,Georgia,3655 Old Milton Pkwy,30005-4487,United States,34.0638068,-84.2527794
60,1616,Spanish Springs Brewing Company,Lady Lake,Florida,1105 Main Street,32159-7720,United States,28.940785,-81.94951669999999
61,1289,The Ship Inn,Milford,New Jersey,61 Bridge St.,08848,United States,40.5685103,-75.0954478
62,8775,O'Griff's Irish Pub & Brewhouse,Quincy,Illinois,415 Hampshire St,62301,United States,39.9335089,-91.409314
63,16269,Inlet Brewing Co.,Jupiter,Florida,P.O. BOX 1483,33468,United States,26.9196422,-80.1021724
64,24447,Pensacola Bay Brewery,Pensacola,Florida,225 E Zaragoza St,32502-6048,United States,30.4086042,-87.2110395
65,11084,"Great Sex Brewing, Inc.",Redding,California,Contract Brewer,96003,United States,40.5865396,-122.3916754
66,4150,"Denmark Brewing, LLC",Denmark,Wisconsin,6000 Maribel Road,54208,United States,44.3514455,-87.8066659
67,17285,Mattingly Brewing Company,Saint Louis,Missouri,3000 S Jefferson Ave,63118-1513,United States,38.5998506,-90.223744
68,20268,Kirkwood Station Brewing Company,Kirkwood,Missouri,105 E Jefferson Ave,63122-4025,United States,38.5825304,-90.4058179
69,18816,Vertigo Brewing,Hillsboro,Oregon,21420 NW Nicholas Ct. Suite D7,97124,United States,45.5315581,-122.8977459
70,5321,McMenamins Queen Anne Hill,Seattle,Washington,200 Roy Street,98109,United States,47.6256012,-122.3524797
71,3354,Dostal Alley Brewpub,Central City,Colorado,1 Dostal Alley,80427-0189,United States,39.8000678,-105.5120655
72,5319,Cornelius Pass Roadhouse & Imbrie Hall (McMenamins),Hillsboro,Oregon,4045 NW Cornelius Pass Road,97124,United States,45.5663798,-122.8940068
73,24445,Haymarket Pub & Brewery,Chicago,Illinois,737 W Randolph St,60661-2103,United States,41.8841279,-87.6472462
74,24748,Tioga-Sequoia Brewing Company,Fresno,California,746 Broadway Street,93721,United States,36.7310567,-119.7882715
75,443,Roffey  Brewing Company,Holland,Michigan,697 Lincoln Ave,49423,United States,42.7712155,-86.0967158
76,11203,Hog Haus Brewing Company,Fayetteville,Arkansas,430 W Dickson St,72701-5107,United States,36.0666546,-94.1652541
77,23468,Colorado Mountain Brewery,Colorado Springs,Colorado,11202 Rampart Hills View,80921,United States,38.9933151,-104.811691
78,27797,William K Busch Brewing Company,Saint Louis,Missouri,8047 Litzsinger Rd,63144-2505,United States,38.617156,-90.33646
79,6245,Mt. Angel Brewing Company,Mt. Angel,Oregon,210 Monroe Street,97362,United States,45.0690951,-122.7996249
80,7536,Castle Bay Irish Pub,Annapolis,Maryland,193-A Main St,21401,United States,38.9778705,-76.4908964
81,670,Riverside Brewing Company,Riverside,California,3397 Mission Inn Ave,92501,United States,33.9814982,-117.3699562
82,27021,Tighthead Brewing Company,Mundelein,Illinois,161 N. Archer Ave.,60060,United States,42.2658503,-87.9997645
83,1413,Desert Edge Brewery,Salt Lake City,Utah,273 Trolley Sq,84102-2888,United States,40.7572261,-111.8729279
84,381,Snowgoose Restaurant & Pub / Sleeping Lady Brewing Company,Anchorage,Alaska,717 W 3rd Ave,99501-2104,United States,61.2197202,-149.8958099
85,688,Coastal Extreme Brewing Co.,Newport,Rhode Island,293 JT Connell Rd,02840-0006,United States,41.5142763,-71.3157195
86,16866,The Bruery,Placentia,California,715 Dunn Way,92870,United States,33.861635,-117.880214
87,161,Florida Beer Company,Cape Canaveral,Florida,200 Imperial Blvd,32920,United States,28.3991026,-80.61179010000001
88,8685,Ruth McGowan's Brewpub,Cloverdale,California,131 East First Street,95425,United States,38.8054929,-123.0158876
89,339,Flying Fish Brewing Company,Somerdale,New Jersey,900 Kennedy Blvd,08083-1031,United States,39.8539722,-75.02031590000001
90,140,Sierra Nevada Brewing Co.,Chico,California,1075 E 20th St,95928,United States,39.724193,-121.8153557
91,777,"Underground, The",Marlborough,Massachusetts,269 Mechanic St,01752,United States,42.3535968,-71.5588104
92,24757,Benny Brewing Company,Wilkes-Barre,Pennsylvania,1429 Sans Souci Pkwy,18706,United States,41.2225265,-75.9406085
93,2098,Terminal Gravity Brewing Company,Enterprise,Oregon,803 SE School Rd,97828,United States,45.4186848,-117.2721391
94,14484,Shamrock Brewing Co.,Pueblo,Colorado,108 West 3rd Street,81003,United States,38.269484,-104.6077535
95,16386,O'so Brewing Company,Plover,Wisconsin,3028 Village Park Drive,54467,United States,44.4519502,-89.5247859
96,1604,Roslyn Brewing,Roslyn,Washington,208 Pennsylvania Ave.,98941,United States,47.2219615,-120.9949141
97,26409,Ancient Lakes Brewing Company,Quincy,Washington,21547 Road 11.2 NW,98848,United States,47.2495558,-119.9506984
98,4286,Lotsolox Brewing Company,Gilroy,California,Fairfax,95102,United States,37.0029828,-121.5566373
99,5246,Cannon Brew Pub,Columbus,Georgia,1041 Broadway,31901-5256,United States,32.46632260000001,-84.9936682
100,2414,Tied House Cafe & Brewery,Mountain View,California,954 Villa St,94041-1236,United States,37.3946868,-122.0806819
101,394,Stoudts Brewing Co.,Adamstown,Pennsylvania,2800 North Reading Rd,19501,United States,40.237355,-76.0723684
102,13397,Mountaineer Brewing Co.,Martinsburg,West Virginia,219 Lawn St Ste B,25405-5009,United States,39.433781,-77.990192
103,564,Island Cafe & Brew Pub,Kelleys Island,Ohio,504 W. Lakeshore Dr.,43438,United States,41.595975,-82.72545
104,20058,The Hartford Better Beer Co.,Stafford Springs,Connecticut,57 Lake Shore Blvd,06076-3433,United States,42.0030582,-72.2592633
105,4509,Wellington's Backwater Brewing Co.,Winona,Minnesota,1429 W Service Drive,55987,United States,44.046198,-91.6760087
106,18225,Nail Creek Pub & Brewery,Utica,New York,720 Varick St,13502,United States,43.1036714,-75.2437358
107,25619,"Van Der Bönerbosch Brewing Company, LLC",Houston,Texas,P.O. Box 11531,77391,United States,29.7604267,-95.3698028
108,16517,McCann's Food & Brew,Saint Cloud,Minnesota,3310 3rd St N,56303-4123,United States,45.5581168,-94.1989833
109,2068,Gentle Ben's Brewing Company,Tucson,Arizona,865 E University Blvd,85719-5046,United States,32.2320319,-110.9582544
110,2,Yellow Rose Brewing Company,San Antonio,Texas,"2650 Lombardy Lane, Suite O",75220,United States,32.8656944,-96.8864584
111,5892,Walnut Brewery,Boulder,Colorado,1123 Walnut Street,80302,United States,40.01687889999999,-105.2804361
112,1497,Jupiter,Berkeley,California,2181 Shattuck Avenue,94704,United States,37.8697958,-122.267582
113,18012,Seven Brides Brewing,Silverton,Oregon,303 S James St,97381,United States,45.0078977,-122.7896385
114,2810,Streets Of New York / Uptown Brewery,Tempe,Arizona,1470 E Southern Ave,85282-5612,United States,33.3941012,-111.9143051
115,289,Saint Ides Brewing Company,San Antonio,Texas,P. O. Box 1661,78296,United States,29.43,-98.49
116,885,Summit Station Restaurant & Brewery,Gaithersburg,Maryland,227 E. Diamond Ave.,20877,United States,39.1419699,-77.1935814
117,17783,1702 / The Address Brewing Co.,Tucson,Arizona,1702 E Speedway Blvd,85719-4515,United States,32.2356786,-110.9466122
118,24477,Solvang Brewing Company,Solvang,California,1547 Mission Drive,93463,United States,34.59631359999999,-120.1436389
119,2412,Hereford & Hops Restaurant & Brewpub,Escanaba,Michigan,624 Ludington St.,49829,United States,45.7460254,-87.0564603
120,1466,Streichs Brewing Co.,West Hartford,Connecticut,53 Richard St,06119-2314,United States,41.7545782,-72.7246095
121,1784,Outer Banks Brewing Station,Kill Devil Hills,North Carolina,Mile Post 8.5,27948,United States,36.0307226,-75.6760101
122,22035,The Big Cheese Pizza Co.,Riverside,California,3397 Mission Inn Ave.,92501,United States,33.9814982,-117.3699562
123,2312,Tenaya Creek Brewery,Las Vegas,Nevada,831 W Bonanza Rd,89106,United States,36.1766073,-115.1534816
124,1264,TBonz Gill & Grill,Mount Pleasant,South Carolina,1028 Johnnie Dodds Blvd,29464-3107,United States,32.8127746,-79.8656898
125,18086,The Run of the Mill Public House & Brewery,Saco,Maine,100 Main St,04072-3500,United States,43.493842,-70.4486477
126,1909,Coasters Pub & Biergarten,Melbourne,Florida,"971 E Eau Gallie Blvd, Ste A",32937-4908,United States,28.137157,-80.584062
127,4629,Quarryman Taverne & Brewery,Berea,Ohio,58 Front Street,44017,United States,41.36691099999999,-81.85265400000002
128,10790,Beck's Sports Brewery,Waterloo,Iowa,3295 University Ave,50701-2003,United States,42.5008717,-92.3901947
129,24355,Three Heads Brewing,Rochester,New York,186 Atlantic Ave,14607,United States,43.1564304,-77.5794044
130,22466,Northshire Brewery,Bennington,Vermont,108 County St,05201-1807,United States,42.8847515,-73.2011278
131,22564,Odd Side Ales,Grand Haven,Michigan,41 Washington Ave,49417,United States,43.0651042,-86.232599
132,18591,Blue Tractor BBQ & Brewery,Ann Arbor,Michigan,207 E. Washington St.,48104,United States,42.2806296,-83.7469307
133,15218,C.B. & Potts,Highlands Ranch,Colorado,43 West Centennial Parkway,80126,United States,39.5626817,-104.9884475
134,5910,Jamesport Brewing Company Inc.,Ludington,Michigan,410 James St,49431,United States,43.96051670000001,-86.447571
135,23628,Brouwerij West,San Pedro,California,"110 E 22nd St, Warehouse No. 9",90731,United States,33.7272381,-118.2799725
136,2905,Boston Baked Beans Co.,Belmont,Massachusetts,PO Box 565,02478-0005,United States,42.3958849,-71.1745579
137,10446,Two Rows Restaurant And Brewery,Addison,Texas,17225 N. Dallas Tollway,75001,United States,32.9609269,-96.8213191
138,12110,Gritty McDuff's Brewery & Pub,Auburn,Maine,68 Maine St,04210-5812,United States,44.09713920000001,-70.2245708
139,932,Hale's Ales Brewery & Pub,Seattle,Washington,4301 Leary Way NW,98107,United States,47.65914730000001,-122.3656823
140,663,Federal Jack's Restaurant & Brew Pub,Kennebunk,Maine,8 Western Ave,04043-7756,United States,43.3599644,-70.4788702
141,24300,Evil Twin Brewing,Brooklyn,New York,446 Kent Ave,11249-5921,United States,40.7088267,-73.96938039999999
142,1090,Rocky River Brewing,Rocky River,Ohio,21290 Center Ridge Road,44116,United States,41.4610007,-81.85613049999999
143,729,Palmetto Brewing Company,Charleston,South Carolina,289 Huger St,29403-4560,United States,32.801215,-79.9458164
144,9264,Royal Bavaria Restaurant & Brewery,Moore,Oklahoma,3401 S Sooner Rd,73165-7218,United States,35.3060397,-97.4240666
145,3032,Hawks Brewing,Roseburg,Oregon,481 Industrial Drive,97470,United States,43.1521528,-123.377117
146,2171,Four Peaks Brewing Company,Tempe,Arizona,1340 E 8th St,85281-4396,United States,33.419652,-111.9159198
147,460,Belmont Brewing Company,Long Beach,California,25 39th Place,90803,United States,33.7593924,-118.1483674
148,15943,Crow Peak Brewing,Spearfish,South Dakota,125 W Highway 14,57783-1150,United States,44.5175177,-103.8702376
149,2951,Red Oak Brewery,Whitsett,North Carolina,6901 Konica Dr,27377,United States,36.0619119,-79.57066030000001
150,10226,Water Street Brewing & Ale House,Port Townsend,Washington,639 Water Street,98368,United States,48.1152269,-122.7542152
151,27632,Aztec Brewing Company,Vista,California,2330 La Mirada Dr Ste 300,92081-7871,United States,33.1496667,-117.2297944
152,366,Thomas Kemper Brewing Co.,Seattle,Washington,91 Royal Brougham Way,98134,United States,47.5923969,-122.3344441
153,3623,Grid Iron Brewpub & Grille,North Canton,Ohio,426 Portage Street NW,44720,United States,40.8777575,-81.40672029999999
154,19114,Yak and Yeti,Arvada,Colorado,7803 Ralston Rd,80002,United States,39.8023836,-105.0841922
155,17894,CP Brewery at Brews and Cues,Pearl Harbor,Hawaii,915 North Rd,96860-4456,United States,21.3554163,-157.9394616
156,343,"Jasper Murdock’s Alehouse, Dining Room & Microbrewery",Norwich,Vermont,325 Main St,05055-9453,United States,43.7150779,-72.3089775
157,3260,The Native Brewing Co.,Fort Lauderdale,Florida,6571 NE 21st Way,33308,United States,26.209057,-80.1161848
158,397,Pipkin Brewery,Louisville,Kentucky,636 E Main St,40202-1004,United States,38.254385,-85.7401446
159,8687,Bear's Lair,Berkeley,California,2475 Bancroft Way,94704,United States,37.8688926,-122.2594404
160,1808,Compass Creek Restaurant & Brewery,Rancho Cucamonga,California,11837 Foothill Boulevard,91730,United States,34.1057898,-117.5469427
161,21449,Sonoma Springs Brewing Co.,Sonoma,California,19449 Riverside Dr,95476,United States,38.2949714,-122.4771298
162,23966,Blue Pants Brewery LLC,Madison,Alabama,"500 Lanier Rd, Ste 1A",35758-2125,United States,34.6851552,-86.7403016
163,3174,Coopersmith's Pub & Brewing,Fort Collins,Colorado,5 Old Town Square,80524,United States,40.5873914,-105.0756291
164,10629,Schmohz Brewing Company,Grand Rapids,Michigan,"2600 Patterson SE, Suite A",49546,United States,42.9160797,-85.54858399999999
165,20688,16 Mile Brewing Company,Georgetown,Delaware,413 S Bedford St,19947-1849,United States,38.678769,-75.3781533
166,56,Celis Brewery Inc.,Austin,Texas,2431 Forbes Drive,78754,United States,30.3326131,-97.6691387
167,18372,Keuka Brewing Company,Hammondsport,New York,8572 Briglin Road,14840,United States,42.4856309,-77.1921663
168,22150,Stillwater Artisanal Ales,Baltimore,Maryland,unknown,21224,United States,39.2713976,-76.5603828
169,13757,Pitchers Brewery & Sports Shack,Greeley,Colorado,2501 11th Avenue,80631,United States,40.3970417,-104.6973666
170,23647,Mill Valley Beerworks,Mill Valley,California,173 Throckmorton Ave,94941,United States,37.9052952,-122.5494049
171,4075,McCall Brewing Company,McCall,Idaho,807 N 3rd St,83638-3806,United States,44.9088266,-116.0969739
172,26944,Blatant Beer,Williamsburg,Massachusetts,4 Main St,01096-9428,United States,42.4363461,-72.7971689
173,16068,Oakshire Brewing,Eugene,Oregon,1055 Madera St.,97402,United States,44.0730261,-123.1407249
174,19765,Black Raven Brewing Co.,Redmond,Washington,14679 NE 95th St,98052,United States,47.6853345,-122.1444615
175,26936,Fountain Square Brewing Co.,Indianapolis,Indiana,1301 Barth Ave,46203,United States,39.7496404,-86.1404603
176,5146,Steelhead Brewing Co.-Fisherman's Wharf,San Francisco,California,353 Jefferson St,94133-1107,United States,37.8074292,-122.4185103
177,16816,Lone Peak Brewery,Big Sky,Montana,58 Market St,59716-1773,United States,45.26178059999999,-111.3080244
178,8689,Lost Duck Brewpub,Fort Madison,Iowa,723 Avenue H,52627-2935,United States,40.63036899999999,-91.310755
179,24814,Yellowhammer Brewing,Huntsville,Alabama,2406 Clinton Ave W,35805-3014,United States,34.7225521,-86.6037487
180,16256,Carolina Brewery,Pittsboro,North Carolina,"120 Lowes Drive, Suite 100",27312,United States,35.74384,-79.16547
181,22917,Ferguson Brewing Company,Ferguson,Missouri,418 S Florissant Rd,63135-2716,United States,38.7381884,-90.3023319
182,4237,Blue Cat Brew Pub,Rock Island,Illinois,113 18th St,61201-8708,United States,41.5117623,-90.5743652
183,15783,Jergensen`s Brewery,Adelanto,California,11641 Rancho Road,92301,United States,34.5586812,-117.4111271
184,21908,Battle Ground Brewery & Restaurant,Franklin,Tennessee,108 Bridge St,37064-2513,United States,35.9279848,-86.8680218
185,3818,Southern Tier Brewing Company,Lakewood,New York,2072 Stoneman Circle,14750,United States,42.0888758,-79.34910789999999
186,17981,Cigar City Brewing,Tampa,Florida,3924 W Spruce St,33607-2441,United States,27.9585618,-82.509151
187,5074,Steamworks Brewing Co.,Durango,Colorado,801 East 2nd Avenue,81301,United States,37.2722784,-107.8800003
188,302,Genesee Brewing Co. / Dundee Brewing Co.,Rochester,New York,445 Saint Paul St.,14605,United States,43.1643031,-77.6151271
189,18879,Chuckanut Brewery & Kitchen,Bellingham,Washington,601 W. Holly St.,98225,United States,48.7533472,-122.4850856
190,9429,Rheingold Brewing Co.,Wilton,Connecticut,372 Danbury Rd,06897-2523,United States,41.2070529,-73.43024079999999
191,21907,Big Rapids Brewing Co.,Big Rapids,Michigan,119 N. Michigan,49307,United States,43.6990451,-85.4824122
192,27645,Telluride Brewing Co.,Telluride,Colorado,156 Society Dr,81435-8903,United States,37.9466155,-107.8773274
193,273,SweetWater Brewing Company,Atlanta,Georgia,195 Ottley Drive NE,30324,United States,33.808012,-84.3810636
194,877,River Horse Brewing Co.,Ewing,New Jersey,2 Graphics Dr,08628,United States,40.2765859,-74.7965165
195,848,Bristol Brewing Company,Colorado Springs,Colorado,1604 S Cascade Ave,80906,United States,38.8110338,-104.8274952
196,1183,Southend Brewery & Smokehouse,Charleston,South Carolina,161 E Bay St,29401-2125,United States,32.7784426,-79.927534
197,17232,Original Gravity Brewing Company,Milan,Michigan,440 County St.,48160,United States,42.0838873,-83.6752743
198,1343,Library Sports Grille & Brewery,Laramie,Wyoming,210 E Custer St,82070-3634,United States,41.3089412,-105.594774
199,1901,West Virginia Brewing Company,Morgantown,West Virginia,1291 University Ave,26505-5450,United States,39.6304794,-79.9580682
200,1299,Mobjack Bay Brewing Company,Richmond,Virginia,2002 Dabney Rd,23230-3311,United States,37.5769517,-77.4827547
201,10996,Roots Organic Brewery,Portland,Oregon,1520 SE 7th Ave,97214,United States,45.5117402,-122.658436
202,11426,SBC Restaurant & Brewery - Milford,Milford,Connecticut,33 New Haven Ave,06460-3308,United States,41.2225561,-73.0556774
203,18990,Joseph James Brewing Inc.,Henderson,Nevada,155 N Gibson Rd,89014,United States,36.0383807,-115.0306154
204,24529,Black Tooth Brewing Company,Sheridan,Wyoming,312 Broadway St,82801-3917,United States,44.8010027,-106.953809
205,1149,Harrison's Brewery and Restaurant,Orland Park,Illinois,15845 LaGrange Road,60462,United States,41.6031009,-87.85244329999999
206,24381,Black Star Co-op Pub & Brewery,Austin,Texas,"7020 Easy Wind Drive, Suite 100",78752,United States,30.3384951,-97.7187753
207,23904,North Sound Brewing Company,Mount Vernon,Washington,"17406 State Route 536, Unit A",98273,United States,48.431635,-122.3702341
208,10425,McMenamins Old St. Francis School,Bend,Oregon,700 NW Bond St.,97701,United States,44.05611649999999,-121.3131968
209,26516,Monday Night Brewing,Atlanta,Georgia,670 Trabert Ave NW,30318-4230,United States,33.7947936,-84.40988
210,14551,Green Valley Brewing Company (Crooked Creek),Fairfield,California,3101 Busch Drive,94534,United States,38.2362938,-122.0930648
211,582,Trailhead Brewing Company,Saint Charles,Missouri,921 S Riverside Dr,63301-3489,United States,38.7742201,-90.4845612
212,3530,Water Tower Brewing Company/US Play,Kennesaw,Georgia,775 Cobb Place Boulevard,30144,United States,34.0066212,-84.5688948
213,699,Butterfield Brewing Company,Fresno,California,2126 Inyo St.,93721,United States,36.732843,-119.785969
214,25053,Sound Brewery,Poulsbo,Washington,19815 Viking Ave NW,98370,United States,47.743054,-122.6573672
215,1074,Oregon Trail Brewery,Corvallis,Oregon,341 SW 2nd Street,97333,United States,44.5612228,-123.2609174
216,18089,Eastern Shore Brewing,Saint Michaels,Maryland,605 S Talbot St,21663,United States,38.7815986,-76.2209566
217,3123,Aberdeen Brewing Company,Valparaiso,Indiana,210 Aberdeen Drive,46383,United States,41.4388835,-87.10685889999999
218,24147,Dunsmuir Brewery Works,Dunsmuir,California,5701 Dunsmuir Ave,96025-2008,United States,41.2119321,-122.2718589
219,94,Long Trail Brewing Co.,Bridgewaters Corners,Vermont,5520 US Route 4,05035-0168,United States,43.5883561,-72.65974179999999
220,610,Bear Republic Brewing Co.,Healdsburg,California,345 Healdsburg Ave.,95448,United States,38.6112447,-122.870982
221,1457,Arbor Brewing Company,Plymouth,Michigan,777 W. Ann Arbor Trail,48170,United States,42.36942459999999,-83.4689815
222,5,Yakima Brewing Co. / Bert Grant's Ales,Yakima,Washington,1803 Presson Place,98903,United States,46.5717273,-120.4995434
223,16352,Blue Mountain Brewery,Afton,Virginia,9519 Critzers Shop Road,22920,United States,38.0160482,-78.8218502
224,396,AleSmith Brewing Company,San Diego,California,9990 AleSmith Ct,92126,United States,32.8882176,-117.149821
225,7375,Squatters Pub Brewery,Salt Lake City,Utah,147 W Broadway,84101-1914,United States,40.7625231,-111.8956578
226,21448,Ladyface Ale Companie,Agoura Hills,California,29281 Agoura Rd.,91301,United States,34.1438834,-118.7629341
227,782,"City Brewing Company, LLC",La Crosse,Wisconsin,925 South 3rd St,54601,United States,43.8041972,-91.2545467
228,1622,Titanic Brewing Company,Coral Gables,Florida,5813 Ponce De Leon Blvd,33146,United States,25.7106196,-80.28305739999999
229,2641,New Old Lompoc Brewery,Portland,Oregon,1620 NW 23rd Ave,97210,United States,45.534347,-122.6985608
230,24827,High Water Brewing,Lodi,California,927 Industrial Way,95240,United States,38.1259866,-121.2543206
231,11361,Heiner Brau,Covington,Louisiana,226 E Lockwood St,70433-2828,United States,30.47780449999999,-90.0966187
232,2743,Green Flash Brewing Co.,San Diego,California,6550 Mira Mesa Blvd.,92121,United States,32.9071098,-117.1777588
233,1475,Maumee Bay Brewing Company,Toledo,Ohio,27 Broadway,43604,United States,41.6431998,-83.5380844
234,5060,Padre Island Brewing Company,South Padre Island,Texas,3400 Padre Blvd,78597,United States,26.1093392,-97.1684618
235,3082,Main Street Brewery,Cincinnati,Ohio,1203 Main Street,45210,United States,39.1089244,-84.51185500000001
236,22433,Orange Blossom Pilsner LLC,Orlando,Florida,4410 Flagg St,32812,United States,28.4881967,-81.33025049999999
237,19213,Blue Hills Brewery,Canton,Massachusetts,1020 Turnpike St. #3B,02021,United States,42.1504456,-71.10409469999999
238,21984,Black Fox Brewing,Colorado Springs,Colorado,1647 S Tejon St,80905-2215,United States,38.8098644,-104.8257169
239,2078,Sweetwater Tavern & Brewery,Centreville,Virginia,14250 Sweetwater Lane,20121,United States,38.8292968,-77.4391438
240,13548,Tracks Brewing Company,Tooele,Utah,1641 N Main St,84074-8023,United States,40.5607306,-112.2974996
241,10224,"BJ's Pizza, Grill & Brewery",Boulder,Colorado,1690 28th St,80301,United States,40.0177299,-105.2577891
242,16814,Bavarian Barbarian Brewing Company,Williamsport,Pennsylvania,429 W. 3rd St,17701,United States,41.2380058,-77.009529
243,1527,Olde Heurich Brewing Co.,Washington,District of Columbia,1111 34th St NW,20007-3246,United States,38.90458659999999,-77.0675767
244,7538,St. Sebastiaan Belgian Microbrewery,Spring Hill,Florida,1320 Commercial Way,34606,United States,28.4518683,-82.6301537
245,9797,North Country Brewing,Slippery Rock,Pennsylvania,141 South Main Street,16057,United States,41.06375200000001,-80.0557407
246,22920,Argus Brewery,Chicago,Illinois,11314 S Front St,60628-5007,United States,41.6885905,-87.61204980000001
247,24453,Intuition Ale Works,Jacksonville,Florida,929 E Bay St,32202,United States,30.3236108,-81.6448156
248,1125,Yellowstone Valley Brewing Co.,Billings,Montana,2123 1st Ave N Ste B,59101-2404,United States,45.786058,-108.4981379
249,24574,Lithia Brewing Company,West Bend,Wisconsin,825 Schoenhaar Dr,53090,United States,43.4315112,-88.1573841
250,20630,Oyster House,Asheville,North Carolina,35 Patton Ave,28801,United States,35.5948382,-82.5532046
251,2415,Tied House Cafe & Brewery,San Jose,California,65 N San Pedro St,95110-2414,United States,37.336027,-121.8942818
252,25393,Icicle Brewing Company,Leavenworth,Washington,935 Front St.,98826,United States,47.596186,-120.6596032
253,16873,10 Barrel Brewing Co.,Bend,Oregon,1135 NW Galveston Ave,97701-2431,United States,44.0563843,-121.3284089
254,85,Pioneer Brewing Co.,South Windsor,Connecticut,765 Sullivan Ave,06074,United States,41.8484185,-72.5720862
255,2422,Skagway Brewing Company,Skagway,Alaska,4th Ave. just off Broadway,99840-0946,United States,59.4551248,-135.3157856
256,6067,Brewbakers,Huntington Beach,California,7242 Heil Ave,92647-4466,United States,33.7224542,-118.0018465
257,4063,River City Brewing Co.,Wichita,Kansas,150 N Mosley St,67202-2804,United States,37.6873985,-97.3271422
258,1727,Hunterdon Brewing Company,Phillipsburg,New Jersey,45 Howard Street,08865,United States,40.6842418,-75.19430990000001
259,855,McMenamins Mill Creek,Mill Creek,Washington,13300 Bothell-Everett Highway #304,98012,United States,47.8771497,-122.2120763
260,24802,Idle Hands Craft Ales,Malden,Massachusetts,89 Commercial St,02148-5509,United States,42.42440209999999,-71.0746973
261,3820,Bozeman Brewing Company,Bozeman,Montana,504 N Broadway Ave,59715-3006,United States,45.6845114,-111.0239444
262,11239,Finnegans Inc.,Minneapolis,Minnesota,817 S 5th Ave,55404,United States,44.9723663,-93.2663586
263,9611,Wild River Brewery And Restaurant,Cave Junction,Oregon,249 North Redwood Highway,97523,United States,42.1708034,-123.6455429
264,4833,Silver Creek Brewing Co.,Cedarburg,Wisconsin,N57 W6172 Portland Road,53012,United States,43.2965697,-87.9858996
265,19553,The Lab Gastropub,Los Angeles,California,3500 S. Figueroa Street,90007,United States,34.0200029,-118.2807289
266,25812,Roc Brewing Company,Rochester,New York,56 S Union St,14607,United States,43.15332979999999,-77.59779879999999
267,25668,Armadillo Ale Works,Denton,Texas,221 S Bell Ave,76201,United States,33.2126294,-97.1280933
268,26932,Golden Road Brewing,Los Angeles,California,5430 W San Fernando Rd,90039-1015,United States,34.1511682,-118.2746735
269,14440,Abbey Wright Brewing Co.,Duboistown,Pennsylvania,204 Valley Street,17702,United States,41.2223513,-77.0369714
270,19526,Mt. Emily Ale House,La Grande,Oregon,1202 Adams Avenue,97850,United States,45.3283618,-118.0942947
271,158,Great Divide Brewing Company,Denver,Colorado,2201 Arapahoe Street,80205,United States,39.7539551,-104.9884932
272,1627,Eel River Brewing Co.,Fortuna,California,1777 Alamar Way,95540,United States,40.579359,-124.1529545
273,3066,Dusters Restaurant and The Gottberg Brew Pub,Columbus,Nebraska,2804 13th St,68601-4919,United States,41.4297297,-97.3622065
274,192,New Belgium Brewing,Fort Collins,Colorado,500 Linden Street,80524,United States,40.5931253,-105.0679797
275,2383,Cooper's Cave Ale Company,Glens Falls,New York,2 Sagamore St,12801,United States,43.31764039999999,-73.63996159999999
276,253,Casco Bay Brewing Co.,Portland,Maine,57 Industrial Way,04103-1071,United States,43.7021598,-70.3179358
277,939,Cross Plains Beer Company,Cross Plains,Wisconsin,2109 Hickory Street,53528,United States,43.1147508,-89.65332939999999
278,4933,Beermann's Beerwerks,Roseville,California,8284 Industrial,95678,United States,38.7637052,-121.2912463
279,225,Amherst Brewing Co.,Amherst,Massachusetts,10 University Dr,01002,United States,42.3727556,-72.5318238
280,16713,HopCat,Grand Rapids,Michigan,25 Ionia SW,49503,United States,42.9623769,-85.670585
281,1115,Two Rows Restaurant & Brewery,Houston,Texas,2400 University Blvd. Suite 200,77005,United States,29.7155416,-95.4155148
282,1690,Shenandoah Brewing Co.,Alexandria,Virginia,652 S. Pickett St,22304,United States,38.80397019999999,-77.1320227
283,1318,Artisan's Brewery & Italian Grill,Toms River,New Jersey,1171 Hooper Ave,08753,United States,39.97720899999999,-74.1822991
284,13667,Starr Hill Brewery,Crozet,Virginia,5391 Three Notch Rd.,22932,United States,38.0693683,-78.6861413
285,761,CB's Brewing Company,Honeoye Falls,New York,300 Village Square Blvd.,14472,United States,42.9520752,-77.6034567
286,10836,Roosterfish Brewing Co.,Watkins Glen,New York,223 N Franklin St,14891,United States,42.3811685,-76.8740103
287,624,Tuckerman Brewing Co.,Conway,New Hampshire,64 Hobbs St,03818-6131,United States,43.9745782,-71.1300013
288,22051,Odonata Beer Company,Sacramento,California,7070 Lazy River Way,95831,United States,38.497401,-121.5508713
289,24411,The Bier Brewery,Indianapolis,Indiana,5133 East 65th Street,46220,United States,39.8755319,-86.0828648
290,3768,Lunar Brewing,Villa Park,Illinois,54 E. St. Charles Road,60181,United States,41.8899832,-87.9766221
291,27322,Berryessa Brewing Co,Winters,California,27260 Hwy 128,95694,United States,38.51383,-122.0032019
292,20173,Golden Hills Brewing Co.,Airway Heights,Washington,12921 W 17 Ave,99001,United States,47.6400049,-117.5899604
293,18085,St. Elias Brewing Company,Soldotna,Alaska,434 Sharkathmi Ave,99669-1141,United States,60.4916521,-151.0484557
294,22723,Notch Brewing,Salem,Massachusetts,283R Derby St,01970,United States,42.5199009,-70.8908213
295,1335,Tun Tavern,Atlantic City,New Jersey,2 Miss America Way,08401,United States,39.362029,-74.438908
296,23315,Crazy Mountain Brewing Company,Edwards,Colorado,439 Edwards Access Rd. B-102B,81632,United States,39.6487754,-106.588655
297,10560,Illinois Brewing Company,Bloomington,Illinois,102 N Center St,61701-5056,United States,40.4787871,-88.9948186
298,16232,Brickstone Restaurant & Brewery,Bourbonnais,Illinois,557 William R Latham Sr Dr,60914-2319,United States,41.1629952,-87.885121
299,24428,2nd Shift Brewery,Saint Louis,Missouri,1601 Sublette Ave,63110,United States,38.6215,-90.2809611
300,17961,Hollywood Beach Brewing Company,Oxnard,California,4531 La Brea St.,93035-3933,United States,34.1712271,-119.2317492
301,25963,Witch's Hat Brewing Co.,South Lyon,Michigan,601 S Lafayette St,48178,United States,42.454514,-83.65034539999999
302,561,Colorado Brewing & Trading Co.,Danbury,Connecticut,6 Delay St,06810-6654,United States,41.39490050000001,-73.45112809999999
303,1644,Kutztown Tavern,Kutztown,Pennsylvania,270-278 West Main Street,19530,United States,40.516028,-75.778009
304,2200,Mogollon Brewing Company,Flagstaff,Arizona,4366 Huntington Dr,86004-9400,United States,35.2183375,-111.5862826
305,1922,Sunday River Brewing Co.,Bethel,Maine,29 Sunday River Rd,04217-4623,United States,44.4483413,-70.8095934
306,19126,Lonerider Brewing,Raleigh,North Carolina,"8816 Gulf Court, Suite 100",27617,United States,35.9034681,-78.7625573
307,1767,Sun Valley Brewing Company,Hailey,Idaho,202 N Main St,83333-8413,United States,43.5210666,-114.3158842
308,17048,Hopmonk Tavern,Sebastopol,California,230 Petaluma Ave,95472-4222,United States,38.4011362,-122.8226923
309,21405,Dave's BrewFarm,Wilson,Wisconsin,2470 Wilson St,54027,United States,44.9734769,-92.1756126
310,742,District ChopHouse & Brewery,Washington,District of Columbia,509 7th St NW,20004-1600,United States,38.8965065,-77.021587
311,1446,Market Cross Pub & Brewery,Carlisle,Pennsylvania,113 North Hanover Street,17013,United States,40.2033889,-77.18857249999999
312,1538,Hangtown Brewery,Placerville,California,560 A Placerville Dr,95667,United States,38.7328633,-120.8263173
313,17960,Three Creeks Brewing Co.,Sisters,Oregon,721 Desperado Ct,97759,United States,44.2852085,-121.5349492
314,26753,Hardywood Park Craft Brewery,Richmond,Virginia,2408 Ownby Ln,23220-1319,United States,37.5645672,-77.4575783
315,25074,The Doodle Brewing Company,Liberty,Missouri,600 Haines Dr,64068-1053,United States,39.2541961,-94.4554376
316,19928,Frosty Knuckle Brewing Company,Ipswich,Massachusetts,23 Hayward St.,01938,United States,42.6718452,-70.8438618
317,5395,Hops Haven Brew Haus,Sheboygan,Wisconsin,1327 N 14th St,53081,United States,43.7594231,-87.72258459999999
318,899,Baltimore Brewing Company,Baltimore,Maryland,104 Albermarle St,21202-4457,United States,39.28805699999999,-76.6036598
319,9717,Mo’s Place Grill & BrewPub,Claflin,Kansas,1908 Elm St,67525-9231,United States,38.6391587,-98.6676866
320,3010,Crown City Brewery,Pasadena,California,300 S. Raymond,91105,United States,34.1399189,-118.1483813
321,13065,Telegraph Brewing Company,Santa Barbara,California,418 N Salsipuedes St,93103,United States,34.4229373,-119.6877074
322,446,Traverse Brewing Company,Williamsburg,Michigan,11550 US 31 South,49629,United States,44.8661941,-85.42552719999999
323,1628,Southampton Publick House,Southampton,New York,62 Jobs Ln,11968,United States,40.883204,-72.39153069999999
324,13918,Steffans Aldergrove Brewery,Marysville,Washington,4029 129TH PL NW,98271,United States,48.1139848,-122.28796
325,2979,Leopold Bros. Brewery of Ann Arbor,Ann Arbor,Michigan,523 South Main Street,48104,United States,42.2752464,-83.74844519999999
326,23018,Black Husky Brewing,Milwaukee,Wisconsin,909 E Locust St,53212,United States,43.0709112,-87.9000947
327,12491,Hops Grill & Brewery,Spartanburg,South Carolina,180 E Blackstock Rd,29301-2605,United States,34.930367,-81.9894861
328,5895,Judge Baldwin's Brewing Company,Colorado Springs,Colorado,4 South Cascade Ave,80903,United States,38.8335127,-104.8267656
329,3042,BJ's Restaurant & Brewhouse,Chandler,Arizona,3155 Chandler Blvd,85226-5175,United States,33.2997349,-111.8983127
330,702,Flying Bison Brewing Company,Buffalo,New York,840 Seneca St,14210,United States,42.8758302,-78.8458038
331,23223,Angry Cedar Brewing Company,Waverly,Iowa,730 Technology Pl Ste C,50677-4387,United States,42.7081066,-92.4805076
332,25957,Market Garden Brewery,Cleveland,Ohio,1947 W 25th Street,44113,United States,41.4850769,-81.70343059999999
333,24803,Mystic Brewery,Chelsea,Massachusetts,174 Williams St,02150,United States,42.3913417,-71.04414799999999
334,357,New England Brewing Co.,Woodbridge,Connecticut,175 Amity Rd,06525-2201,United States,41.33940399999999,-72.97959639999999
335,607,High Point Brewing Company,Butler,New Jersey,14 Kiel Ave,07405,United States,41.0017972,-74.3419992
336,6928,Twain's Billiards and Tap,Decatur,Georgia,211 E Trinity Pl,30030,United States,33.7724413,-84.29462389999999
337,68,Flying Dog Brewery,Frederick,Maryland,4607 Wedgewood Blvd,21703,United States,39.3622998,-77.4267406
338,4210,Ohio Brewing Company,Niles,Ohio,5790 Youngstown-Warren Rd.,44446,United States,41.2088457,-80.7472568
339,15504,Laht Neppur Brewing Company,Waitsburg,Washington,444 Preston Ave.,99361,United States,46.26976200000001,-118.1484319
340,692,Ellicottville Brewing Co.,Ellicottville,New York,28 Monroe Street,14731,United States,42.27516079999999,-78.6704109
341,2687,Heavenly Daze Brewery and Grill,Denver,Colorado,208 S. Kalamath St.,80203,United States,39.7122252,-104.998721
342,23698,BJ's Restaurant And Brewhouse,Stockton,California,5733 Pacific Avenue,95207,United States,38.0019999,-121.3174619
343,19798,Wimberley Brewing Company And Brewpub,Wimberley,Texas,9595 Ranch Road 12,98676,United States,29.94093149999999,-98.0919159
344,16813,Barrio Brewing Company,Tucson,Arizona,800 E 16th St,85719-6603,United States,32.214412,-110.9595118
345,24679,Big Beaver Brewing Co.,Loveland,Colorado,2707 W Eisenhower Blvd Unit 9,80537,United States,40.4081161,-105.1145704
346,3352,Humperdinks Restaurant and Sports Bar,Addison,Texas,3820 Belt Line Rd,75234,United States,32.9526292,-96.85080440000002
347,25151,Red Ear Brewing Company,Covington,Kentucky,208 Pike St,41011-2322,United States,39.08232599999999,-84.51356539999999
348,8540,Etna Brewery,Etna,California,131 Callahan Street,96027,United States,41.4569979,-122.8918756
349,16126,Growstown Brewing Company,Brunswick,Maine,354 Church Rd,04011-7303,United States,43.89204060000001,-70.00457089999999
350,27119,Draught Works,Missoula,Montana,915 Toole Ave,59802-2625,United States,46.877638,-114.0039745
351,13989,Stockholm's,Geneva,Illinois,306 W. State Street,60134-2103,United States,41.8878156,-88.3082804
352,23191,Mutiny Brewing Company,Joseph,Oregon,600 N Main St,97846,United States,45.3574062,-117.2294915
353,4372,Port Halling Brewing Company,Gresham,Oregon,333 N Main Street,97030,United States,45.5003367,-122.4314277
354,10485,East End Brewing Company,Pittsburgh,Pennsylvania,147 Julius St,15206,United States,40.459257,-79.9117928
355,1640,Big House Brewing Co.,Albany,New York,90 N. Pearl St.,12207-2207,United States,42.6525455,-73.7511184
356,1033,Max Lager's American Grill & Brewery,Atlanta,Georgia,320 Peachtree St,30308,United States,33.7633543,-84.38709899999999
357,778,Pioneer Brewing Company,Black River Falls,Wisconsin,320 Pierce Street,54651,United States,44.2926531,-90.8516162
358,411,Stoney Creek Brewing Company,Detroit,Michigan,237 Joseph Campau St,48207-4107,United States,42.337152,-83.018559
359,18563,Lift Bridge Brewery,Stillwater,Minnesota,1900 Tower Dr W,55082,United States,45.03915079999999,-92.8317562
360,4051,Mammoth Brewing Company,Mammoth Lakes,California,18 Lake Mary Rd,93546,United States,37.6487222,-118.9834932
361,13447,Lander Brewing Company,Lander,Wyoming,128 Main St,82520-3126,United States,42.8326055,-108.7276238
362,5188,Emmett's Brewing Company,West Dundee,Illinois,128 West Main Street,60118,United States,42.0983441,-88.2783925
363,5864,Dark Mountain Brewery,Vail,Arizona,13605 E Benson Hwy,85641-9027,United States,32.018311,-110.703271
364,25186,The Farmers' Cabinet,Philadelphia,Pennsylvania,1113 Walnut St,19107,United States,39.948909,-75.159691
365,5393,Duneland,Michigan City,Indiana,5718 S. Franklin,46360,United States,41.667371,-86.89450479999999
366,2946,The Grumpy Troll Restaurant and Brewery,Mount Horeb,Wisconsin,105 South Second St,53572,United States,43.0080691,-89.7381058
367,5077,Barley Brown's Brewpub,Baker City,Oregon,2190 Main St.,97814,United States,44.7787856,-117.8293986
368,10436,Klamath Basin Brewing Co.,Klamath Falls,Oregon,1320 Main Street,97601,United States,42.22784559999999,-121.776433
369,23596,Slip Point Brewing,Clallam Bay,Washington,91 Salt Air St,98326,United States,48.258964,-124.253065
370,26645,Rumspringa Brewing Company,Bird-in-Hand,Pennsylvania,3174 Old Philadelphia Pike,17505,United States,40.0389873,-76.13493969999999
371,881,Camo Brewing Company,Las Vegas,Nevada,3300 E Flamingo Rd Ste 17,89121-4398,United States,36.1164387,-115.1028268
372,9269,Flour City Brewing Co.,Rochester,New York,869 E. Henrietta Rd.,14623,United States,43.103458,-77.616475
373,1394,Skagit River Brewery,Mount Vernon,Washington,404 South Third Street,98273,United States,48.4193089,-122.3353785
374,19378,Hop Valley Brewing Company,Springfield,Oregon,980 Kruse Way,97477,United States,44.0828278,-123.0398144
375,18080,"Boone Brewing Company, LLC",Blowing Rock,North Carolina,128 Greenway Court,28605,United States,36.1326357,-81.6775983
376,1333,"St. Croix Brewing Company, LLC",Saint Paul,Minnesota,363 Webster St,55102,United States,44.9304129,-93.1245744
377,13066,Old Savannah Brewing Company,Savannah,Georgia,136 Nettles Industrial Boulevard,31405,United States,32.0535671,-81.1255283
378,234,Owen O'Leary's,Natick,Massachusetts,319 Speen Street,01745,United States,42.3025969,-71.3775665
379,35,Boston Beer Company (Samuel Adams),Jamaica Plain,Massachusetts,30 Germania St,02130-2315,United States,42.3145564,-71.10289519999999
380,4980,Engine House No.9,Tacoma,Washington,611 N Pine St,98406,United States,47.2559741,-122.4732812
381,1103,Nimbus Brewing Company,Tucson,Arizona,3850 E 44th St,85713-5472,United States,32.1846376,-110.9101485
382,1916,Kettle House Brewing Co.,Missoula,Montana,602 Myrtle St,59801-2704,United States,46.8655756,-113.998771
383,15280,Atwater Block Brewery,Detroit,Michigan,237 Joseph Campau,48207,United States,42.3371349,-83.018586
384,10699,Pittsfield Brew Works,Pittsfield,Massachusetts,34 Depot Street,01201,United States,42.4506542,-73.2542826
385,11675,Silverton Brewery,Silverton,Colorado,1333 Greene St,81433,United States,37.8130284,-107.6635568
386,25092,The Barber Shop,Dripping Springs,Texas,207 Mercer St,78620,United States,30.192588,-98.0887881
387,22200,Wormtown Brewing Co.,Worcester,Massachusetts,72 Shrewsbury St,01604-4625,United States,42.2635255,-71.79138309999999
388,823,The Olde Burnside Brewing Company,East Hartford,Connecticut,780 Tolland St,06108-2727,United States,41.7851904,-72.6006618
389,18927,Bodega 1800 Import & Export Corporation,Miami,Florida,8548 NW 72nd St,33166-2300,United States,25.8386099,-80.3367234
390,5578,SBC Restaurant & Brewery - Stamford,Stamford,Connecticut,131 Summer St,06901-2323,United States,41.0544593,-73.54040959999999
391,6068,Southside Speakeasy And Brewpub,Salem,Oregon,3529 Fairview Industrial Drive,97302,United States,44.9047259,-123.0182493
392,3865,North End Tavern & Brewery,Parkersburg,West Virginia,3500 Emerson Ave,26104-1806,United States,39.2874884,-81.5330369
393,1065,Shipyard Brewery & Brewport Pub,Orlando,Florida,9333 West Airport Blvd.,33605,United States,28.790578,-81.2979024
394,25256,Elevation 66 Brewing,El Cerrito,California,10082 San Pablo Ave,94530-3927,United States,37.90207729999999,-122.3028455
395,21635,Jailhouse Brewing Company,Hampton,Georgia,14 Cherry Street,30228,United States,33.38689,-84.28222699999999
396,27096,Hillbilly Brewing,Maiden Rock,Wisconsin,N2025 385th Street,54750,United States,44.6115202,-92.3218926
397,16353,Hopworks Urban Brewery,Portland,Oregon,2944 SE Powell Blvd,97202,United States,45.4968699,-122.6348437
398,432,Bohannon Brewery / Market Street Brewery,Nashville,Tennessee,134 2nd Ave N,37201-1902,United States,36.163155,-86.77545599999999
399,306,Coors Brewing Company,Golden,Colorado,13th and Ford St,80401,United States,39.7557636,-105.2184979
400,447,Pabst Brewing Company,San Antonio​,Texas,110 E Houston Street,78205-2991,United States,29.4262673,-98.4934688
401,1805,Rock Art Brewery,Morrisville,Vermont,632 Laporte Rd,05661-8322,United States,44.5582405,-72.6088578
402,19127,Metropolitan Brewing,Chicago,Illinois,3057 N Rockwell Ave,60618,United States,41.9376237,-87.6911951
403,4932,Santa Maria Brewing Co.,Nipomo,California,115 Cuyama Ln,93444,United States,34.9957452,-120.4364382
404,978,Black Diamond Brewing Co.,Concord,California,"2470 Bates Ave, Suite C",94520,United States,38.0138484,-122.0307344
405,786,Stevens Point Brewery,Stevens Point,Wisconsin,2617 Water Street,54481-5248,United States,44.5103949,-89.5737836
406,1168,Barley John's Brew Pub,New Brighton,Minnesota,781 Old Hwy 8 SW,55112,United States,45.036161,-93.198156
407,619,Indian Wells Brewing Company,Inyokern,California,2565 N Highway 14,93527-2700,United States,35.6673021,-117.8727628
408,903,Gettysbrew Restaurant & Brewery,Gettysburg,Pennsylvania,248 Hunterstown Rd.,17325,United States,39.8459441,-77.21038089999999
409,14064,Kern River Brewing Company,Kernville,California,13415 Sierra Way,93238,United States,35.7574812,-118.4192996
410,22472,Skull Coast Brewing Company,Fort Mill,South Carolina,802 Somerton Dr,29715-1761,United States,35.0113677,-80.95634430000001
411,2674,Sheepscot Valley Brewing Company,Whitefield,Maine,74 Hollywood Blvd,04353-3729,United States,44.145053,-69.6048619
412,4013,Glenwood Canyon Brewing / Canyon Brew Pub,Glenwood Springs,Colorado,402 Seventh Street,81601,United States,39.5475746,-107.3228908
413,3267,Oyster Bar Brewery,Fort Wayne,Indiana,1590 W. Dupont Road,46825,United States,41.1779908,-85.16433219999999
414,2695,Bull & Bush Pub & Brewery,Denver,Colorado,4700 Cherry Creek Dr S,80246,United States,39.7033555,-104.9322961
415,5392,Carlyle Brewing Company,Rockford,Illinois,215 E State St,61104-1010,United States,42.26895589999999,-89.09062899999999
416,10590,Bitter Creek Brewing Company,Rock Springs,Wyoming,604 Broadway St,82901-6348,United States,41.586747,-109.2178526
417,16447,Mulholland Brewing Company,Reynoldsburg,Ohio,7679 E. Main St,43068,United States,39.9550077,-82.7927243
418,4931,Morro Bay Brewing Company,Morro Bay,California,280 Harbor St.,93442,United States,35.366677,-120.850312
419,25961,Big Island Brewhaus & Tako Taco Taqueria,Kamuela,Hawaii,64-1066 Mamalahoa Hwy,96743-7309,United States,20.0247789,-155.6615159
420,17271,Bootlegger's Brewery,Fullerton,California,130 S Highland Ave,92832,United States,33.8696029,-117.9284014
421,8452,Shadows Brewing Company,Cheyenne,Wyoming,115 W 15th St,82001-4564,United States,41.13178449999999,-104.8144276
422,24481,Beaver Brewing Company,Beaver Falls,Pennsylvania,1820 7th Ave,15010-4001,United States,40.7591188,-80.3190257
423,754,Erie Brewing Co.,Erie,Pennsylvania,6008 Knowledge Pkwy,16510,United States,42.1185977,-79.9679671
424,27037,Triton Brewing Company,Indianapolis,Indiana,5764 Wheeler Rd,46216,United States,39.8601984,-86.007093
425,21442,Bee Creek Brewery,Brazil,Indiana,PO Box 515,47834,United States,39.523652,-87.1250154
426,18823,Freetail Brewing Company,San Antonio,Texas,4035 N Loop 1604 W. Suite 105.,78257,United States,29.6015959,-98.5613288
427,487,Tampa Bay Brewing Co.,Tampa,Florida,1600 East 8th Ave,33605,United States,27.9605773,-82.44157059999999
428,11650,Mobius Brewing,Greenville,South Carolina,2054 Piedmont Hwy,29605-4840,United States,34.7966066,-82.4234311
429,26824,The Civil Life Brewing Company,Saint Louis,Missouri,3714 Holt Ave,63116-2614,United States,38.5906156,-90.2578601
430,1912,Milwaukee Ale House,Milwaukee,Wisconsin,233 North Water Street,53202,United States,43.0334345,-87.90953710000001
431,2617,Big River Grille & Brewing Works,Chattanooga,Tennessee,222 Broad St,37402-1009,United States,35.0539509,-85.3103332
432,3353,Rockyard Brewing,Castle Rock,Colorado,880 West Castleton Road,80104,United States,39.4091341,-104.8698616
433,14867,Griesedieck Brothers Brewery Co.,Saint Louis,Missouri,1240 Switzer Ave,63147,United States,38.7112898,-90.238612
434,4300,San Marcos Brewery & Grill,San Marcos,California,1080 W. San Marcos Boulevard,92069,United States,33.1344351,-117.1909682
435,27922,Smog City Brewing,Torrance,California,1901 Del Amo Blvd Ste B,90501,United States,33.84713,-118.313629
436,1522,Main Street Brewery / Mesa Cerveza,Cortez,Colorado,21 E Main St,81321,United States,37.348325,-108.5845817
437,958,Red Star Brewery & Grill,Greensburg,Pennsylvania,101 Ehalt Street,15601,United States,40.3045563,-79.5467773
438,25351,Beer Engine,Danville,Kentucky,107 Larrimore Ln,40422-1674,United States,37.6468012,-84.7712535
439,7685,Full Circle Brewing Co.,Fresno,California,620 F Street,93706,United States,36.7270581,-119.7906887
440,24940,Almanac Beer Co.,Alameda,California,651 W Tower Ave,94501,United States,37.783325,-122.299099
441,6565,Hops Grillhouse & Brewery,Gainesville,Florida,3770 SW Archer Road,32608,United States,29.6211696,-82.3800354
442,14034,Corner Brewery & Beer Garden,Ypsilanti,Michigan,720 Norris Street,48198,United States,42.2502526,-83.6099812
443,2113,Raccoon River Brewing Company,Des Moines,Iowa,200 N 10th St,50309-3609,United States,41.5840496,-93.6296172
444,9820,Elk Head Brewing Company,Buckley,Washington,28120 Hwy 410,98321,United States,47.1573436,-122.0548183
445,25685,Budge Brothers Brewery,Spokane,Washington,‎2018 E Riverside #1,99202,United States,47.6578415,-117.3801297
446,11618,Wiedenmayer Brewing Corp.,Bedminster,New Jersey,PO Box 67,07921,United States,40.6431955,-74.6751731
447,24824,Shire Reeve Brewing Company,Anaheim,California,2910 E La Palma,92806,United States,33.8492821,-117.8630235
448,3073,Oggi's Pizza & Brewing Co.,San Clemente,California,1245 Puerta Del Sol,92673,United States,33.4576645,-117.5887916
449,16198,North Star Craft Brewery,Shasta Lake,California,3501 Iron Ct.,96019,United States,40.6583139,-122.3858735
450,18081,Big Al Brewing,Seattle,Washington,9832 14th Ave SW,98106,United States,47.5143101,-122.3523628
451,2436,Blue Corn Brewery,Santa Fe,New Mexico,4056 Cerrillos Rd,87507-2604,United States,35.6386229,-106.0154819
452,4335,The Wheat Beer Company,Camino,California,2380 Larsen Dr,95709,United States,38.755793,-120.6791676
453,20357,Deadwood Café & Brewery,Dorchester,Massachusetts,820 Morrissey Blvd,02122,United States,42.2939102,-71.04634100000001
454,2263,Porterhouse Restaurant & Brew Pub,Lahaska,Pennsylvania,5775 Lower York Road,18931,United States,40.3459728,-75.0337113
455,25839,St. Petersburg Brewing Company,Saint Petersburg,Florida,544 First Avenue North,33701,United States,27.7717876,-82.6410222
456,862,E.J. Phair Brewing Company,Pittsburg,California,300 Cumberland St,94565,United States,38.0330242,-121.8825434
457,26520,Jack's Abby Brewing,Framingham,Massachusetts,100 Clinton Street,01702,United States,42.2803749,-71.4108262
458,8930,Dempsey's Restaurant And Brewery,Petaluma,California,50 East Washington St.,94952,United States,38.2348393,-122.6391829
459,895,Napa Valley Ale Works,Napa Valley,California,110 Camino Oruga,94558,United States,38.229228,-122.2557289
460,19776,Ghost River Brewing,Memphis,Tennessee,827 S Main St,38106-2063,United States,35.1249319,-90.0594534
461,14207,Sprague Farm & Brew Works,Venango,Pennsylvania,22019 US-6,16440,United States,40.6242374,-103.162265
462,17978,River Bend Brewing Company,Hailey,Idaho,113 River Bend Rd,83333-5139,United States,43.5963152,-114.3466337
463,22656,Chardon BrewWorks & Eatery,Chardon,Ohio,200 B Center St,44024,United States,41.58384179999999,-81.2093423
464,4705,Jaipur Brewing Company,Omaha,Nebraska,10922 Elm St,68144-4822,United States,41.2328686,-96.0833506
465,14313,Powerhouse Brewing Company's Columbus Bar,Columbus,Indiana,322 4th Street,47201,United States,39.2025643,-85.9216137
466,19666,Cháu Tiên USA,Carmel,California,PO Box 221185,93922,United States,36.45,-121.84
467,17882,Carlson Craft Brewery,Branford,Connecticut,79 Gould Ln,06405-6125,United States,41.294355,-72.7630511
468,7848,Big Rock Chop & Brewhouse,Birmingham,Michigan,245 S Eton,48009,United States,42.5466004,-83.1955862
469,27870,4 Hands Brewing Co.,Saint Louis,Missouri,1220 S 8th St,63104-3610,United States,38.614918,-90.1975447
470,23222,Toppling Goliath Brewing Company,Decorah,Iowa,1600 Prosperity Rd,52101,United States,43.2739945,-91.7263179
471,1177,Minneapolis Town Hall Brewery,Minneapolis,Minnesota,1430 Washington Ave S,55454-1038,United States,44.9733315,-93.2477857
472,21876,The LAB (Lexington Avenue Brewery),Asheville,North Carolina,39 N Lexington Ave,28801,United States,35.5961621,-82.55328659999999
473,20417,White Birch Brewing,Nashua,New Hampshire,460 Amherst St,03063,United States,42.789402,-71.5194437
474,6372,Fort Collins Brewing,Fort Collins,Colorado,1020 E Lincoln Ave,80524,United States,40.5891748,-105.0585726
475,1862,Top of the Hill Restaurant and Brewery,Chapel Hill,North Carolina,"101 East Franklin Street, Third Floor",27514,United States,35.9134517,-79.05565589999999
476,363,Big Time Brewery & Alehouse,Seattle,Washington,4133 University Way NE,98105,United States,47.6578567,-122.3136189
477,115,"Old Nutfield Brewing Company, Ltd.",Derry,New Hampshire,22 Manchester Rd,03038-3055,United States,42.8968529,-71.33221979999999
478,891,Hudson Valley Brewing Company,Mohegan Lake,New York,1851 East Main Street,10547,United States,41.32131400000001,-73.8560114
479,27036,Bentley Brewing Company / Dark Horse Tavern,Southbridge,Massachusetts,12 Crane Street,01550,United States,42.0804845,-72.0352068
480,24832,Tap It Brewing Co.,San Luis Obispo,California,675 Clarion Court,93401,United States,35.2440999,-120.6456503
481,11485,Grindstone Brewing Co.,Columbia,Missouri,47 E Broadway,65203-4253,United States,38.95201429999999,-92.3370706
482,4317,Six Rivers Brewery,McKinleyville,California,1300 Central Ave.,95519,United States,40.9260124,-124.1002006
483,19247,The Olde Mecklenburg Brewery,Charlotte,North Carolina,4150 Yancey Rd,28217,United States,35.1872759,-80.8817942
484,3062,Amos Howard's Brew Pub,Hickory,North Carolina,2828 West Highway 70,28602,United States,35.7215486,-81.38727519999999
485,870,Moylan's Brewery,Novato,California,15 Rowland Way,94954,United States,38.0940726,-122.5567532
486,943,Smoky Mountain Brewery & Restaurant,Gatlinburg,Tennessee,1004 Parkway Ste 501,37738-3172,United States,35.7074833,-83.5204389
487,3185,The Tap Brewing Company,Haverhill,Massachusetts,100 Washington Street,01832,United States,42.7727232,-71.0852745
488,1396,Snipes Mountain Microbrewery & Restaurant,Sunnyside,Washington,905 Yakima Valley Hwy,98944,United States,46.3285711,-120.0082465
489,3,Abita Brewing Co.,Covington,Louisiana,21084 LA-36,70433,United States,30.482193,-90.05511829999999
490,1933,Mishawaka Brewing Company,Elkhart,Indiana,2414 Lowell Street,46516,United States,41.6625088,-85.9439676
491,27039,The Alchemist,Waterbury,Vermont,35 Crossroad,05676-9003,United States,44.3504276,-72.7438521
492,1286,Sioux Falls Brewing Co.,Sioux Falls,South Dakota,431 N Phillips Ave,57104-5935,United States,43.5522825,-96.7271975
493,776,Catamount Brewing Company,White River Junction,Vermont,58 S Main St,05001-7069,United States,43.6477047,-72.31881059999999
494,22512,Trapp Family Lodge Brewery,Stowe,Vermont,1333 Luce Hill Rd,05672,United States,44.4709164,-72.7352508
495,1297,Grand Rapids Brewing Co,Grand Rapids,Michigan,3689 28th St,49512,United States,42.9128051,-85.5774041
496,3448,Hoppy Brewing Co.,Sacramento,California,6300 Folsom Blvd.,95819,United States,38.5546935,-121.4296948
497,21340,Great Dane Pub & Brewing Company (Wausau),Wausau,Wisconsin,2305 Sherman Street,54401,United States,44.9511816,-89.6649424
498,955,Rockslide Brewery & Pub,Grand Junction,Colorado,405 Main Street,81501,United States,39.0671959,-108.5658889
499,19868,Whitstran Brewing Company,Prosser,Washington,1427 Wine Country Rd.,99350,United States,46.2103859,-119.769964
500,24056,Thai Me Up,Jackson,Wyoming,75 E Pearl Ave,83001-8658,United States,43.4786576,-110.7612925
501,24018,Jester King Craft Brewery,Austin,Texas,"13005 Fitzhugh Road, Bld. B",78736,United States,30.2335151,-97.9951298
502,21554,Fire Mountain Brew House,Carlton,Oregon,10800 NW Rex Brown Rd,97111,United States,45.2944624,-123.3195137
503,2642,North by Northwest Restaurant & Brewery,Austin,Texas,10010 Capital Of TX Hwy N,78759,United States,30.3911433,-97.7384026
504,1175,Sherlock's Home,Minnetonka,Minnesota,11000 Red Circle Dr.,55343,United States,44.8949818,-93.4190275
505,17893,Shooting Creek Farm Brewery,Floyd,Virginia,1188 Thomas Farm Rd SE,24091,United States,36.9074228,-80.2188204
506,3567,Oggi's Pizza & Brewing Co.,Vista,California,425 S. Melrose Drive,92083,United States,33.1892685,-117.2541759
507,73,Great Lakes Brewing Company,Cleveland,Ohio,2516 Market Avenue,44113,United States,41.484399,-81.7045211
508,22412,Noble Ale Works,Anaheim,California,1621 S Sinclair St,92806,United States,33.808469,-117.8828344
509,694,Tröegs Brewing Company,Hershey,Pennsylvania,200 East Hersheypark Dr,17033,United States,40.2971377,-76.6431664
510,1001,Firehouse Brewing Co.,Rapid City,South Dakota,601 Main St,57701-2735,United States,44.0809094,-103.2272823
511,4685,Hofbräuhaus Newport,Newport,Kentucky,200 E 3rd St,41071-1612,United States,39.0950547,-84.49378560000001
512,14358,Embers Grill,Alpharetta,Georgia,3655 Old Milton,30005,United States,34.0638068,-84.2527794
513,2725,Kraftbräu Brewery,Kalamazoo,Michigan,402 East Kalamazoo Avenue,49007,United States,42.2942589,-85.5780332
514,5689,Sparhawk Brewers,South Freeport,Maine,PO Box 736,04078-0736,United States,43.8202037,-70.10684309999999
515,17282,Good People Brewing Company,Birmingham,Alabama,114 14th St S,35233-1415,United States,33.5070471,-86.8121182
516,2711,BJ's Restaurant & Brewery,Brea,California,600 Brea Mall Drive,92821,United States,33.9129886,-117.8893348
517,27025,Lucid Brewing,Minneapolis,Minnesota,701 N 5th St,55401,United States,44.9855492,-93.2815523
518,20681,Maine Beer Company,Freeport,Maine,525 US Route 1,04032-7009,United States,43.8394233,-70.12118219999999
519,17856,Rex Beverage Holdings,Plainfield,Indiana,PO Box 717,46168,United States,39.70421229999999,-86.39943869999999
520,27029,Soo Brewing Company,Sault Ste Marie,Michigan,223 W. Portage Ave.,49783,United States,46.5008302,-84.34810759999999
521,1013,Brewski Brewing Company,Hermosa Beach,California,2629 Manhattan Avenue #139,90254,United States,33.8727763,-118.4048742
522,882,Beach Chalet Brewery and Restaurant,San Francisco,California,1000 Great Highway @ Ocean,94121,United States,37.7694872,-122.5101792
523,25811,South County Brewing Co.,Fawn Grove,Pennsylvania,104 Mill St,17321,United States,39.7326431,-76.4484907
524,2346,Rochester Mills Beer Co.,Rochester,Michigan,310 Water St.,48307,United States,42.6796099,-83.13149849999999
525,11882,Round Barn Brewery,Baroda,Michigan,10983 Hills Rd,49101,United States,41.9213627,-86.4538152
526,20017,Five Seasons Westside,Atlanta,Georgia,1000 Marietta St.,30318,United States,33.7781618,-84.41011639999999
527,3798,High Desert Brewing Company,Las Cruces,New Mexico,1201 W Hadley Ave,88005-2422,United States,32.3096614,-106.7934571
528,1415,Marmot Mesa Brewery & Ale House,Salt Lake City,Utah,163 Pierpont Ave,84101-1902,United States,40.7635669,-111.8960072
529,25423,New Boswell Brewing Company,Richmond,Indiana,410 N 10th St,47374-3118,United States,39.8338015,-84.88946399999999
530,22065,Redwood Curtain Brewing Company,Arcata,California,550 South G. Street Suite #6,95521,United States,40.8571217,-124.0886848
531,25259,Olvalde Farm & Brewing Company,Rollingstone,Minnesota,16557 County Road 25,55969-4046,United States,44.09449840000001,-91.8098383
532,22202,Element Brewing Company,Millers Falls,Massachusetts,16 Bridge St,01349-1336,United States,42.5787852,-72.4952011
533,26528,Helltown Brewing,Mount Pleasant,Pennsylvania,13 Henry C Frick St,15666,United States,40.1508014,-79.5316496
534,14855,"Bad Monkey Brewing Company, LLC",Atlanta,Georgia,2090 Dunwoody Club Dr,30350-5406,United States,33.9607546,-84.30102649999999
535,1106,Grizzly Peak Brewing Company,Ann Arbor,Michigan,120 West Washington Street,48104,United States,42.2807158,-83.7495654
536,14518,Kassik's Kenai Brew Stop,Kenai,Alaska,47160 Spruce Haven St,99611-9677,United States,60.663935,-151.30604
537,16401,All-American Grill & Brewhouse,Waverly,Minnesota,101 Summerfield Dr,55390-9797,United States,45.0641148,-93.9761746
538,2352,Wolf Creek Brewing,Valencia,California,27746 North McBean Parkway,91354,United States,34.4451417,-118.5514342
539,16497,Hops Grill & Brewery,North Chesterfield,Virginia,1570 Koger Center Blvd,23235-4721,United States,37.5119309,-77.6118597
540,12098,Skye Book And Brew,Dayton,Washington,148 E. Main St.,99328,United States,46.319161,-117.981082
541,2830,America's Brewpub,Aurora,Illinois,205 N Broadway,60505-2663,United States,41.7612236,-88.3085162
542,23347,Mike Hess Brewing,San Diego,California,7955 Silverton Ave,92126,United States,32.8892474,-117.149775
543,3455,Buckner Brewing Co.,Cape Girardeau,Missouri,132 N Main St,63701-7309,United States,37.3057574,-89.5181559
544,589,Fratello's & Fox River Brewing,Oshkosh,Wisconsin,1501 Arboretum Drive,54901,United States,44.03488460000001,-88.5622317
545,21092,World Brews,Novato,California,"35 Leveroni Court, Suite 100",94949,United States,38.0726556,-122.5323522
546,156,Tommyknocker Brewery,Idaho Springs,Colorado,1401 Miner Street,80452,United States,39.7416267,-105.5177181
547,16393,Mission Brewery,San Diego,California,1441 L Street,92101,United States,32.7071477,-117.1515916
548,2521,Lindens Brewing Co.,Fort Collins,Colorado,214 Linden Street,80524,United States,40.5881607,-105.074807
549,11053,The Firehouse Brewing Co.,San Diego,California,10306 San Diego Mission Rd,92108,United States,32.7857555,-117.1112624
550,591,Hoptown Brewing Company,Pleasanton,California,3015 Hopyard Road #D,94568,United States,37.6770938,-121.8974385
551,410,Pittsburgh Brewing Co.,Pittsburgh,Pennsylvania,3340 Liberty Ave.,15201,United States,40.4606767,-79.966219
552,1037,Barley's Brewing Company,Columbus,Ohio,467 N. High St.,43215,United States,39.971926,-83.00281609999999
553,590,New Glarus Brewing Company,New Glarus,Wisconsin,2400 Hwy 69,53574,United States,42.7967399,-89.63195019999999
554,4027,Great Adirondack Steak And Seafood Co.,Lake Placid,New York,2442 Main St,12946,United States,44.2902003,-73.9855067
555,1620,Dunedin Brewery,Dunedin,Florida,937 Douglas Avenue,34698,United States,28.0140302,-82.78758669999999
556,12516,Thirsty Dog Brewing Company,Akron,Ohio,529 Grant St. Suite B,44311,United States,41.0689086,-81.517597
557,997,The Brewer's Art,Baltimore,Maryland,1106 N. Charles Street,21201,United States,39.3027666,-76.6164053
558,23200,Knee Deep Brewing Company,Auburn,California,"13395 New Airport Rd, Suite H",95602,United States,38.9519093,-121.0803596
559,392,Weyerbacher Brewing Co.,Easton,Pennsylvania,905-G Line Street,18042,United States,40.6735168,-75.2257089
560,983,E & O Trading Company,San Francisco,California,314 Sutter Street,94108,United States,37.7898545,-122.4059315
561,4861,Frankenmuth Brewery,Frankenmuth,Michigan,425 S Main Street,48734,United States,43.33112149999999,-83.7377603
562,18635,Aviator Brewing Company,Fuquay-Varina,North Carolina,209 Technology Park Ln,27526,United States,35.6198358,-78.8082656
563,16385,Linden Street Brewery,Oakland,California,"95 Linden St, Ste 7",94607,United States,37.7994194,-122.2878567
564,25925,Arriba Mexican Grill & Casa Arriba Brewing Company,Glendale,Arizona,17211 N 79th Ave,85308-8709,United States,33.6402467,-112.2294134
565,22698,Grogg's Pinnacle Brewing Co.,Helper,Utah,1653 N Carbonville Rd,84526-2504,United States,39.6249866,-110.8425461
566,15112,Hurricane Brewing Company,Mobile,Alabama,225 Dauphin St,36602-2717,United States,30.690984,-88.04373989999999
567,485,Humboldt Brews LLC,Arcata,California,856 10th St,95521,United States,40.8702068,-124.0871428
568,22513,Madhouse Brewing Company,Des Moines,Iowa,501 Scott Ave,50309-5047,United States,41.5810699,-93.607701
569,26749,Burley Oak Brewery,Berlin,Maryland,10016 Old Ocean City Rd,21811,United States,38.3516095,-75.23885849999999
570,21528,Palouse Falls Brewing Company,Pullman,Washington,1335 SE Bishop Blvd,99163,United States,46.7198595,-117.1645747
571,22319,Figure 8 Brewing,Valparaiso,Indiana,150 S Washington St,46383,United States,41.46655750000001,-87.06121619999999
572,2089,ReaperAle,Lake Elsinore,California,18283 Pasadena St,92530,United States,33.6881299,-117.3453506
573,4614,Orlando Brewing Partners,Orlando,Florida,1301 Atlanta Avenue,32806,United States,28.5264039,-81.3826012
574,350,Coeur d'Alene Brewing Co.,Coeur d'Alene,Idaho,209 Lakeside Ave,83814-2832,United States,47.67454799999999,-116.7837173
575,22459,JoBoy's Brew Pub,Lititz,Pennsylvania,27-31 E Main St,17543,United States,40.1571698,-76.30613579999999
576,24804,Carmody Irish Pub & Brewing,Duluth,Minnesota,308 E Superior St,55802,United States,46.78989989999999,-92.0938847
577,676,Foundry Ale Works,Pittsburgh,Pennsylvania,2816 Smallman Street,15222,United States,40.4576032,-79.97575789999999
578,5327,Lighthouse Brewpub (McMenamins),Lincoln City,Oregon,4157 NW Hwy 101,97367-5172,United States,44.9967275,-124.0050939
579,1196,"Great Beer Company, The",Chatsworth,California,21119 Superior Street,91311,United States,34.2466355,-118.5936998
580,7773,Legacy Brewing Co.,Reading,Pennsylvania,525 Canal Street,19601,United States,40.3257117,-75.9264843
581,8630,Quay Street Brewing Company,Port Huron,Michigan,330 Quay St,48060-3828,United States,42.9756738,-82.42326179999999
582,1135,"Franklin's Restaurant, Brewery & General Store",Hyattsville,Maryland,5123 Baltimore Avenue,20781,United States,38.9526216,-76.9403147
583,4408,RJ Rockers Brewing Company,Spartanburg,South Carolina,226A W Main St,29306-2308,United States,34.948626,-81.935707
584,26458,Mudhook Brewing Company,York,Pennsylvania,34 N Cherry Lane,17401,United States,39.9630424,-76.72969789999999
585,1163,Mohegan Cafe and Brewery,Block Island,Rhode Island,213 Water St,02807-0280,United States,41.1729648,-71.55862499999999
586,27032,Cheboygan Brewing Company,Cheboygan,Michigan,101 N. Main St.,49721,United States,45.6432989,-84.4782632
587,27793,Private Stock Spirits,Westport,Connecticut,1720 Post Rd E,06880-5643,United States,41.1377166,-73.30346310000002
588,24600,Figueroa Mountain Brewing Co.,Buellton,California,45 Industrial Way,93427,United States,34.6106475,-120.202269
589,559,Speakeasy Ales & Lagers,San Francisco,California,"1195 Evans Avenue, Suite A",94124,United States,37.73816559999999,-122.3806629
590,16060,Weeping Radish Eco Farm & Brewery,Grandy,North Carolina,6810 Caratoke Hwy,27939,United States,36.2196611,-75.86982569999999
591,17223,"Intercourse Brewing Company, LLC",Collegeville,Pennsylvania,"707 Roseville Circle, Suite 100",19426,United States,40.1856597,-75.451571
592,2079,Sweetwater Tavern & Brewery,Sterling,Virginia,45980 Waterview Plaza,20166,United States,39.0334805,-77.40986
593,25882,Double Take Brewing Company,Rochester,New York,445 Saint Paul Street,14605,United States,43.1643031,-77.6151271
594,1866,Southend Brewery & Smokehouse,Raleigh,North Carolina,505 West Jones Street,27603,United States,35.7825535,-78.6463897
595,1000,Brewer's Alley Restaurant & Brewery,Frederick,Maryland,124 N Market St,21701-5422,United States,39.4160762,-77.4105326
596,25261,Farside Brew Pub,Albuquerque,New Mexico,9800 Montgomery Blvd NE,87111-3560,United States,35.1302944,-106.5324248
597,1638,Heads Up Brewing,Silverdale,Washington,9960 Silverdale Way,98383,United States,47.65299690000001,-122.6903347
598,10152,Moonshine,Chicago,Illinois,1824 W Division St,60622-3113,United States,41.9035235,-87.6734467
599,22349,Lefty's Brewing Company,Greenfield,Massachusetts,301 Wells St,01301,United States,42.60141309999999,-72.6064774
600,23842,Leech Lake Brewing Company,Walker,Minnesota,195 Walker Industries Boulevard,56484,United States,47.1029127,-94.612942
601,22440,Carson’s Restaurant and Brewery,Newington,Connecticut,3260 Berlin Tpke,06111-4628,United States,41.6588967,-72.7230625
602,4928,Liberty Steakhouse & Brewery,Myrtle Beach,South Carolina,1321 Celebrity Cir,29577-7445,United States,33.7161895,-78.882582
603,2510,Main Street Brewery & Lamppost Pizza,Corona,California,493 N. Main St.,92880,United States,33.8863936,-117.564347
604,20680,Fremont Brewing Company,Seattle,Washington,3409 Woodland Park Avenue North,98103,United States,47.64918549999999,-122.3444563
605,16333,Tallgrass Brewing Company,Manhattan,Kansas,5960 Dry Hop Cir,66503,United States,39.142907,-96.6793497
606,18539,Devils Backbone Brewing Company,Roseland,Virginia,200 Mosbys Run,22967,United States,37.8708768,-78.918857
607,23922,Baxter Brewing Co.,Lewiston,Maine,130 Mill St,04240-7774,United States,44.0952036,-70.219123
608,1291,Motor City Brewing Works,Detroit,Michigan,470 West Canfield,48201,United States,42.3518486,-83.0660664
609,27118,El Cajon Brewing Company,El Cajon,California,110 N Magnolia Ave.,92020,United States,32.7952985,-116.9626252
610,1095,Hops Grillhouse & Brewery,Newington,Connecticut,3260 Berlin Tpke,06111-4628,United States,41.6588967,-72.7230625
611,25168,Holy City Brewing,North Charleston,South Carolina,4155 Dorchester Rd,29405-7486,United States,32.8527052,-80.0024407
612,25338,El Dorado Brewing Company,Diamond Springs,California,6051 Enterprise Drive,95619,United States,38.6947615,-120.8341918
613,1646,Davidson Brothers Restaurant & Brewery,Glens Falls,New York,184 Glen St.,12801,United States,43.3096492,-73.6447678
614,14177,Walldorff Brewpub and Bistro,Hastings,Michigan,105 E State St,49058,United States,42.6490459,-85.2874027
615,8681,Peter B's Brew Pub,Monterey,California,2 Portola Plz,93940,United States,36.6016058,-121.8943043
616,9826,Altitude Chophouse & Brewery,Laramie,Wyoming,320 S 2nd St,82070-3612,United States,41.3103417,-105.5953008
617,9823,Downtown Joe's American Bar And Grill,Napa,California,902 Main Street,94559,United States,38.298733,-122.284839
618,12155,The Mash Tun,Portland,Oregon,2204 NE Alberta St,97211,United States,45.5588827,-122.6427274
619,3792,Turtle Mountain Brewing Company,Rio Rancho,New Mexico,905 36th Pl SE,87124-4850,United States,35.2424975,-106.6649152
620,23318,Crystal Springs Brewing Company,Louisville,Colorado,657 S Taylor Ave,80027-3063,United States,39.9605825,-105.1202766
621,9148,Woof Breweries,Tualatin,Oregon,19480 SW 97th Avenue,97062,United States,45.3792944,-122.7779197
622,12487,Scrooge & Marley Brewing Co.,Monroe,Wisconsin,1208 14th Ave.,53566,United States,42.5998637,-89.64119819999999
623,1032,Five Seasons Prado,Atlanta,Georgia,5600 Roswell Road,30342,United States,33.90809309999999,-84.3807762
624,21073,Doppelganger's Bar & Grill,Carson City,Nevada,302 N Carson St,89701-4202,United States,39.1653472,-119.7671365
625,11124,Murrieta Pizza & Brewing,Murrieta,California,25383 Madison Avenue,92562,United States,33.55076,-117.1953625
626,24964,Private Stock Brewing Co.,Winchester,Massachusetts,14 York Road,01890,United States,42.4383056,-71.1412002
627,19304,Breaker Brewing Company,Wilkes-Barre,Pennsylvania,787 E Northampton St,18702-7521,United States,41.2253184,-75.8688499
628,3200,Portneuf Valley Brewing,Pocatello,Idaho,615 S 1st Ave,83201-6557,United States,42.8598102,-112.4433267
629,12375,Mt. Carmel Brewing Company,Cincinnati,Ohio,4362 Mount Carmel Tobasco Road,45244,United States,39.0935856,-84.300163
630,632,Triple Rock Brewery & Alehouse,Berkeley,California,1920 Shattuck Avenue,94704,United States,37.8733981,-122.2688226
631,4740,Temecula Brewing Company,Temecula,California,40820 Winchester Rd. #1060,92591,United States,33.5245692,-117.1546001
632,9704,Emmett's Brewing Company,Downers Grove,Illinois,5200 Main Street,60515,United States,41.79252,-88.01054740000001
633,24828,Jaden James Brewery,Kentwood,Michigan,4665 Broadmoor,59512,United States,42.8789798,-85.56275649999999
634,22995,BottleTree Beer Co.,Tryon,North Carolina,"10 N. Trade Street, Suite D",28782,United States,35.2089443,-82.23814759999999
635,52,Buzzards Bay Brewing,Westport,Massachusetts,98 Horseneck Road,02790,United States,41.5677947,-71.0501018
636,1602,Big Hole Brewing Company,Belgrade,Montana,401 E Main St,59714-3852,United States,45.7732463,-111.1702662
637,132,Rogue Ales,Newport,Oregon,2320 SE OSU Drive,97365-5261,United States,44.6202098,-124.0523393
638,762,Butte Creek Brewing Company,Ukiah,California,1601 Airport Rd,95482,United States,39.1231672,-123.197168
639,719,Blitz-Weinhard Brewing Co.,Hood River,Oregon,506 Columbia St,97031,United States,45.7104953,-121.5157614
640,21274,Wallace Brewing / Orehouse Tasting Room,Wallace,Idaho,610 Bank St,83873-2227,United States,47.4714477,-115.9232088
641,940,Dogwood Brewing Company,Atlanta,Georgia,1222 Logan Circle NW,30318,United States,33.8069298,-84.4301497
642,1635,Chelsea Brewing Company,Bronx,New York,463 E 173rd St,10457,United States,40.8417785,-73.9011773
643,931,Pacific Rim Brewing Co.,Seattle,Washington,9832 14th Ave. SW,98106,United States,47.5143101,-122.3523628
644,2308,Chicago Brewing Company,Las Vegas,Nevada,2201 S Fort Apache Rd,89117-5704,United States,36.147496,-115.2980657
645,4432,Lengthwise Brewing Company,Bakersfield,California,7700 District Blvd,93313,United States,35.3135906,-119.0881046
646,425,H.C. Berger Brewing Co.,Fort Collins,Colorado,1900 East Lincoln Ave.,80524,United States,40.5831516,-105.0423678
647,468,Minnesota Brewing Company,Saint Paul,Minnesota,882 West 7th Street,55102,United States,44.9294539,-93.1237497
648,19587,Hofbräuhaus Pittsburgh,Pittsburgh,Pennsylvania,2705 S Water St SouthSide Works,15203,United States,40.4286877,-79.9644709
649,23876,BierWerks Brewery,Woodland Park,Colorado,121 E Midland Ave,80863,United States,38.9941418,-105.0519408
650,2144,McCoy's Public House,Kansas City,Missouri,4057 Pennsylvania Ave,64111-3021,United States,39.0531492,-94.5915309
651,25888,Perennial Artisan Ales,Saint Louis,Missouri,8125 Michigan Ave,63111-3500,United States,38.545541,-90.2653434
652,3776,Third Street Aleworks,Santa Rosa,California,610 3rd Street,95404,United States,38.4398499,-122.7125607
653,9529,Cumberland Brews,Louisville,Kentucky,1576 Bardstown Rd,40205-1154,United States,38.23086989999999,-85.70555259999999
654,2980,Alameda Brewhouse,Portland,Oregon,4765 NE Fremont St,97213,United States,45.5485049,-122.6136212
655,1060,Hazel Dell Brewpub,Vancouver,Washington,8513 NE Highway 99,98665,United States,45.6840153,-122.660349
656,7406,Bitter Root Brewing,Hamilton,Montana,101 Marcus St,59840-2541,United States,46.2471594,-114.1542946
657,24791,Port City Brewing,Alexandria,Virginia,3950 Wheeler Avenue,22304,United States,38.8079977,-77.1015012
658,790,Nicolet Brewing Company,Florence,Wisconsin,2299 Brewery Lane / PO Box 650,54121,United States,45.92632,-88.2390378
659,15750,Half Moon Restaurant & Brewery,Kokomo,Indiana,4051 S. LaFountain,46902,United States,40.4362642,-86.12814619999999
660,26529,American Honor Beer Company,Wilkes-Barre,Pennsylvania,700 N Pennsylvania Ave,18705,United States,41.2548428,-75.85766199999999
661,1568,Brew Moon Restaurant & Microbrewery,Honolulu,Hawaii,1200 Ala Moana Blvd,96814-4271,United States,21.2927179,-157.8520883
662,25327,DC Brau Brewing Co.,Washington,District of Columbia,3178 Bladensburg Rd NE Ste B,20018-2214,United States,38.9296431,-76.9601673
663,717,Oak Creek Brewing Co.,Sedona,Arizona,2050 Yavapai Dr,86336-4558,United States,34.8666138,-111.7968891
664,2936,J.T. Whitney's Pub & Brewery,Madison,Wisconsin,674 S. Whitney Way,53711,United States,43.05099209999999,-89.4739962
665,5469,"Power Plant Restaurant & Brewery, The",Parkville,Missouri,2 Main St,64152-3754,United States,39.1888799,-94.684419
666,13768,Gardner Ale House,Gardner,Massachusetts,74 Parker St,01440,United States,42.5757357,-71.9970475
667,788,Slab City Brewing Company,Bonduel,Wisconsin,W3590 Pit Lane,54107,United States,44.7121805,-88.4199134
668,1608,The Shed Restaurant & Brewery,Stowe,Vermont,1859 Mountain Rd,05672-4890,United States,44.4737541,-72.7139332
669,17206,Wolf Beer Company,Wilmington,North Carolina,3505 North Kerr Ave,28405,United States,34.2881874,-77.9187543
670,13504,Lucky Labrador Beer Hall,Portland,Oregon,1945 NW Quimby St,97209,United States,45.5337016,-122.6917189
671,22928,Barrier Brewing Company,Oceanside,New York,3001 New St Unit 2a,11572,United States,40.6384726,-73.65610439999999
672,9550,Upstream Brewing Company - Legacy,Omaha,Nebraska,17070 Wright Plz,68130-2083,United States,41.2332719,-96.1819099
673,22539,Foothills Brewing & Beverage Co.,Black Diamond,Washington,25312 Kanasket Drive,98010,United States,47.329121,-122.0040867
674,21445,BJ's Restaurant And Brewhouse,San Rafael,California,5800 Northgate Mall,94903,United States,38.0035222,-122.5442269
675,21872,Prism Brewing Company,Lansdale,Pennsylvania,624 E Main St,19446,United States,40.2337085,-75.2711762
676,459,Mackinaw Brewing Company,Traverse City,Michigan,161 East Front Street,49684,United States,44.7642894,-85.6212831
677,2093,Vierling Restaurant & Marquette Harbor Brewery,Marquette,Michigan,119 S. Front St,49855,United States,46.5425571,-87.3928032
678,16345,DuClaw Brewing Co.,Baltimore,Maryland,901 S Bond St,21231-3339,United States,39.2805499,-76.59450609999999
679,16205,Saint Somewhere Brewing Company,Tarpon Springs,Florida,312 Tarpon Ave,34689,United States,28.146028,-82.7531084
680,4146,Karl Strauss Brewing Company,San Diego,California,5985 Santa Fe Street,92109,United States,32.8325583,-117.2315028
681,11492,Methow Valley Brewing Company/Twisp River Pub,Twisp,Washington,209 East 2nd Ave,98856,United States,48.3649143,-120.1204931
682,137,Sea Dog Brewing Company,Bangor,Maine,26 Front St,04401-6418,United States,44.7968901,-68.76978240000001
683,1888,Lake Placid Craft Brewing Company,Lake Placid,New York,813 Mirror Lake Drive,12946,United States,44.2829012,-73.9812547
684,743,Lancaster Brewing Company,Lancaster,Pennsylvania,302 N. Plum St.,17602,United States,40.04389219999999,-76.2985489
685,2372,Terrapin Beer Company,Athens,Georgia,265 Newton Bridge Rd.,30607,United States,33.980489,-83.3967156
686,2101,Blue Star Brewing Company,San Antonio,Texas,1414 S. Alamo #105,78210,United States,29.409524,-98.495312
687,9104,Front Street Brewery,Davenport,Iowa,208 E River Dr,52801-1609,United States,41.5204612,-90.5722026
688,12713,SchillingBridge Winery & Microbrewery,Pawnee City,Nebraska,62193 710th Rd,68420-3584,United States,40.1202251,-96.1377607
689,10661,Big Horn Brewing Company,Tacoma,Washington,3001 Ruston Way,98402,United States,47.2797667,-122.4747605
690,449,New Amsterdam Brewing Company,New York,New York,275 Park Avenue South,10010,United States,40.739102,-73.98683660000002
691,24659,La Cumbre Brewing Co.,Albuquerque,New Mexico,3313 Girard Blvd NE,87107-1930,United States,35.1178573,-106.6141642
692,4850,McMenamins Dad Watson's,Seattle,Washington,3601 Fremont Ave. N,98103,United States,47.6517884,-122.350341
693,23688,Baying Hound Aleworks,Rockville,Maryland,1108 Taft St,20850-1310,United States,39.093998,-77.1352812
694,27917,Draai Laag Brewing Company / Saints & Turncoats Public House,Millvale,Pennsylvania,501 E Ohio St,15209-2671,United States,40.4787536,-79.9681918
695,25593,Jackalope Brewing Company,Nashville,Tennessee,429B Houston St,37203,United States,36.1426003,-86.7669939
696,22938,5 Points Brewing Company,San Diego,California,1795 Hancock St,92110-2006,United States,32.7422734,-117.184648
697,750,Lake Superior Brewing Company,Duluth,Minnesota,2711 W Superior St,55806,United States,46.7612106,-92.1331462
698,351,Steam Plant Grill,Spokane,Washington,159 S Lincoln,99201,United States,47.6552052,-117.4241174
699,2306,Pints Brewery & Sports Bar,Laughlin,Nevada,2100 S Casino Dr,89029-1514,United States,35.1580128,-114.5720583
700,27879,Birdsong Brewing,Charlotte,North Carolina,2315 N. Davidson St.,28205,United States,35.2407453,-80.8145076
701,773,Elm City Brewing Co.,Keene,New Hampshire,222 West St,03431-2455,United States,42.9313779,-72.28677979999999
702,24136,Abbey Beverage Company (Monastery of Christ in the Desert),Abiquiu,New Mexico,1305 Forest Service Rd,87510-0270,United States,36.207241,-106.3186397
703,23597,Von Scheidt Brewing Company,Twin Falls,Idaho,157 2nd Ave W,83301-6015,United States,42.5557503,-114.47232
704,4739,Moffat Station Brewery,Winter Park,Colorado,81699 US Highway 40,80482,United States,39.88557309999999,-105.7591868
705,819,Ross Valley Brewing Company,Fairfax,California,765 Center Blvd.,94930,United States,37.9858756,-122.5840658
706,821,Monte Carlo Casino Pub & Brewery,Las Vegas,Nevada,3770 Las Vegas Blvd S,89109-4337,United States,36.1050192,-115.1736471
707,4231,Prairie Rock Brewing Company,Elgin,Illinois,127 S Grove Ave,60120-6407,United States,42.0346514,-88.2818314
708,11599,Green Man Brewery,Asheville,North Carolina,23 Buxton Avenue,28801,United States,35.5886777,-82.5532021
709,12471,Ellersick Brewing Company,Lynnwood,Washington,5030 208th Street SW,98036,United States,47.8097795,-122.3020611
710,5275,Front Street Brewery,Wilmington,North Carolina,9 North Front Street,28401,United States,34.2357516,-77.94907979999999
711,26548,Rolling Meadows Brewery,Cantrall,Illinois,3954 Central Point Rd,62625-8803,United States,39.871241,-89.73038480000001
712,15765,BJ's Restaurant & Brewhouse,Phoenix,Arizona,21001 N Tatum Blvd,85050-4206,United States,33.6790764,-111.9767701
713,26634,Wichita Brewing Co. & Pizzeria,Wichita,Kansas,8815 W 13th St N,67212-4072,United States,37.7082793,-97.4450311
714,4358,Schlafly Bottleworks,Saint Louis,Missouri,1 Schlafly Plz,63143-2454,United States,38.6270025,-90.1994042
715,1834,"Shipwrecked Brew Pub, Restaurant and Inn",Egg Harbor,Wisconsin,7791 Egg Harbor Rd,54209,United States,45.049439,-87.2805058
716,5598,Detroit Brew Factory,Eastpointe,Michigan,18065 E 8 Mile Rd,48021-3220,United States,42.4508277,-82.93444190000001
717,15042,Vintage 50 Restaurant And Brew Lounge,Leesburg,Virginia,50 Catoctin Circle NE #100,20176,United States,39.1126533,-77.55409270000001
718,5076,Big Horse Brew Pub / Horse Feathers & Co.,Hood River,Oregon,115 State St.,97031,United States,45.7079648,-121.5120652
719,23694,Wandering Star Brewing Company,Pittsfield,Massachusetts,11 Gifford Street,01201-3701,United States,42.4569165,-73.2115432
720,2309,Ellis Island Casino & Brewery,Las Vegas,Nevada,4178 Koval Ln,89109-4568,United States,36.1130091,-115.1633017
721,5117,Founders Restaurant & Brewing Co.,Alexandria,Virginia,607 King Street,22314-3105,United States,38.8052098,-77.04614699999999
722,837,Golden Pacific Brewing Company,Berkeley,California,1404 Fourth Street,94710,United States,37.8769143,-122.3030892
723,11933,Coach's Restaurant,Edmond,Oklahoma,3005 S Broadway,73013-4034,United States,35.6254468,-97.4860294
724,2084,Thunder Canyon Brewery,Tucson,Arizona,220 E. Broadway Blvd,85701,United States,32.2209457,-110.9665439
725,16872,Honest Town Brewery & The Dark Horse Tavern,Southbridge,Massachusetts,12 Crane Street,01550,United States,42.0804845,-72.0352068
726,4014,Mystic Brewing Company,Kalamazoo,Michigan,5266 Gull Rd,49048,United States,42.320905,-85.52586149999999
727,166,Palm Springs Brewery Inc.,Palm Springs,California,5055 Calle San Raphael,92264,United States,33.8094142,-116.4919664
728,1012,Bonaventure Brewing,Los Angeles,California,404 South Figueroa Street #418,90071,United States,34.0529106,-118.2561946
729,24675,"Those Guys & TG Enterprises, Inc.",Lake Orion,Michigan,124 E Flint Street,48362,United States,42.7847013,-83.238255
730,13547,Ruby River Steakhouse & Brewery,Ogden,Utah,4286 Riverdale Rd,84405-3512,United States,41.1847837,-111.9862966
731,11689,Gella's Diner & Lb. Brewing Co.,Hays,Kansas,117 E 11th St,67601-3603,United States,38.8720781,-99.3296385
732,26439,Oxbow Brewing Company,Newcastle,Maine,274 Jones Woods Rd,04553-3123,United States,44.0828271,-69.563661
733,23651,Wild Heaven Craft Beers,Decatur,Georgia,135B Maple St,30030,United States,33.7764302,-84.2757355
734,630,Academy of Fine Beers,Corona Del Mar,California,435 Fernleaf,92625,United States,33.6003692,-117.8749017
735,3232,BJ's Restaurant & Brewery,Oxnard,California,461 W Esplanade Drive,93030,United States,34.2365049,-119.1800829
736,4067,Fordham Brewing Company,Dover,Delaware,1284 McD Dr,19901-4639,United States,39.1536551,-75.4880864
737,3585,BJ's Restaurant & Brewery,West Covina,California,2917 Eastland Cntr Dr.,91791,United States,34.0723502,-117.8836456
738,583,Saint Louis Brewery / Schlafly Tap Room,Saint Louis,Missouri,2100 Locust St,63103-1616,United States,38.6330091,-90.2097401
739,2210,Firestone Walker Brewing Co.,Paso Robles,California,1400 Ramada Dr,93446,United States,35.5958774,-120.6943059
740,13907,Crabtree Brewing Company,Greeley,Colorado,2961 W 29th St,80631,United States,40.3906939,-104.7272428
741,27007,Twelve String Brewing Company,Spokane Valley,Washington,"11616 E Montgomery Dr, Ste # 26",99206,United States,47.6765322,-117.2485495
742,423,Boulevard Brewing Co.,Kansas City,Missouri,2501 Southwest Blvd,64108-2345,United States,39.0819251,-94.5967467
743,33,Berkshire Brewing Company Inc.,South Deerfield,Massachusetts,12 Railroad St,01373-0096,United States,42.4786977,-72.6092956
744,9897,Jolly Pumpkin Artisan Ales,Dexter,Michigan,3115 Broad Street,48130,United States,42.3374697,-83.88958149999999
745,16094,Double Mountain Brewery & Taproom,Hood River,Oregon,8 4th Street,97031,United States,45.71000189999999,-121.5146336
746,1293,"Great Grains Brewery, Inc.",Dallas,Texas,"2650 Lombardy Lane, Suite O",75220,United States,32.8656944,-96.8864584
747,2790,Harper's Restaurant & Brewpub,East Lansing,Michigan,131 Albert Ave.,48823,United States,42.73625699999999,-84.4828019
748,467,Summit Brewing Company,Saint Paul,Minnesota,910 Montreal Circle,55102,United States,44.9139657,-93.1395418
749,6980,Keegan Ales,Kingston,New York,20 St. James Street,12401,United States,41.931475,-74.011848
750,3192,Calhoun's Microbrewery,Knoxville,Tennessee,6515 Kingston Pike,37919-4826,United States,35.9323173,-84.0119337
751,21952,People's Brewing Company,Lafayette,Indiana,2006 N. 9th Street,47904,United States,40.4381158,-86.8870785
752,13107,McKenzie Brew House,Malvern,Pennsylvania,240 Lancaster Avenue,19355,United States,40.0398671,-75.54304549999999
753,16504,Nebraska Brewing Company,Papillion,Nebraska,7474 Towne Center Pkwy,68046-4805,United States,41.1353578,-96.0276614
754,5605,Palisade Brewing Co.,Palisade,Colorado,200 Peach Avenue,81526,United States,39.1110903,-108.3543443
755,22194,Flat Tail Brewing,Corvallis,Oregon,202 SW First St,97330,United States,44.5626645,-123.2597239
756,3564,Gordon Biersch,Pasadena,California,41 Hugus Alley One Colorado,91105,United States,34.1463889,-118.1516667
757,3474,Listermann Brewing Supply & Mfg,Cincinnati,Ohio,1621 Dana Ave,45207,United States,39.1463055,-84.472431
758,386,Broken Tooth Brewing,Anchorage,Alaska,2021 Spar Ave,99501-1815,United States,61.222829,-149.8429732
759,21737,Bandwagon Brew Pub,Interlaken,New York,3582 West Ave,14847,United States,42.6164,-76.728774
760,2766,Ironworks Brewpub,Lakewood,Colorado,12354 W Alameda Pkwy,80232,United States,39.7034682,-105.1361745
761,8818,Dale Bros. Brewery,Upland,California,2120 Porter Field Way,91786,United States,34.1089328,-117.6907225
762,12315,Old Mill Brewery & Grill,Littleton,Colorado,5798 Rapp Street,80120,United States,39.6119985,-105.0195344
763,680,Bricktown Brewery,Oklahoma City,Oklahoma,1 N Oklahoma Ave,73104-2413,United States,35.4667332,-97.5108069
764,2513,Sun Up Brewing Co.,Phoenix,Arizona,322 E Camelback Rd,85012-1614,United States,33.5094924,-112.0687589
765,19752,St. Francis Brewery & Restaurant,St. Francis,Wisconsin,3825 S. Kinnickinnic Ave,53235,United States,42.9740668,-87.8758794
766,10588,Hoppers Grill & Brewing Co.,Midvale,Utah,890 Fort Union Blvd,84047-1745,United States,40.6218075,-111.866407
767,1455,Ram Restaurant & Brewery,Indianapolis,Indiana,140 S Illinois St,46225,United States,39.7648517,-86.1603919
768,2197,Liberator Brewing Company & HomeBrew Supply,Troutdale,Oregon,411 East Columbia River Highway,97060,United States,45.5408819,-122.3852274
769,25979,GoodLife Brewing Company & Bier Hall,Bend,Oregon,70 SW Century Dr,97701,United States,44.0510361,-121.3301301
770,19516,Old World Brewery,Phoenix,Arizona,334 N 25th Ave,85009-4424,United States,33.45220680000001,-112.1135403
771,126,Pete's Brewing Company,San Antonio,Texas,14800 San Pedro Avenue,78232,United States,29.5763375,-98.4773635
772,123,"Paper City Brewery Co., Inc.",Holyoke,Massachusetts,108 Cabot St,01040,United States,42.2012732,-72.61033019999999
773,766,Heartland Brewery Union Square,New York,New York,35 Union Square West,10003,United States,40.73688990000001,-73.990792
774,27331,Butcher's Brewing,Santee,California,"9962 Prospect Ave, Ste E",92071-4371,United States,32.8319916,-116.9796314
775,1477,Great Northern Brewing Co. / Black Star Draught House,Whitefish,Montana,2 Central Ave,59937-2547,United States,48.4123268,-114.3372647
776,26536,Exit 6 Brewery,Cottleville,Missouri,5055 Highway N,63304-8034,United States,38.7449197,-90.6402722
777,23058,Pub Dog Brewing,Westminster,Maryland,1203 New Windsor Rd,21158,United States,39.555894,-77.04101949999999
778,2274,Ice Axe Grill / Mt. Hood Brewing Co.,Government Camp,Oregon,87304 E Government Camp Loop,97028,United States,45.3032405,-121.7663019
779,10567,John S. Rhodell Brewery,Peoria,Illinois,"100 Walnut St, Ste 111",61602,United States,40.6864664,-89.5935917
780,22783,O'Connor Brewing Co.,Norfolk,Virginia,211 W. 24th Street,23517,United States,36.8698225,-76.2863778
781,5276,San Andreas Brewing / Earthquake Country Pub,Hollister,California,737 San Benito Street,95023,United States,36.8486975,-121.401842
782,14520,Kenai River Brewing Co.,Soldotna,Alaska,241 N Aspen Dr,99669-7527,United States,60.4935844,-151.070135
783,23108,Engine 15 Brewing Company,Jacksonville Beach,Florida,1500 Beach Blvd,32250-2621,United States,30.2874239,-81.40862349999999
784,10626,Stumptown Brewery & Smokehouse,Guerneville,California,15045 River Rd,95446,United States,38.5137682,-122.9834198
785,11212,Iron Horse Brewery,Ellensburg,Washington,1000 Prospect Street,98926,United States,47.0015875,-120.5655485
786,16594,LagerHaus Grill & Brewery,Palm Harbor,Florida,3438 East Lake Business,34685,United States,28.0617535,-82.70592239999999
787,6976,Karl Strauss Brewing Company,Costa Mesa,California,901A South Coast Dr,92626,United States,33.6895418,-117.8957876
788,14516,Elysian Fields,Seattle,Washington,542 First Avenue South,98104,United States,47.5969411,-122.3338065
789,1950,Court Avenue Brewing Company,Des Moines,Iowa,309 Court Ave,50309-2245,United States,41.5853461,-93.6209511
790,5371,Hermann Brewing Company,Hermann,Missouri,120 E 4th St,65041-1130,United States,38.7041138,-91.4365792
791,5331,Hillsdale Brewery & Public House (McMenamins),Portland,Oregon,1505 SW Sunset Blvd,97201,United States,45.4792558,-122.6937083
792,5312,Elliot Glacier Public House,Parkdale,Oregon,4945 Baseline Road,97041,United States,45.51942589999999,-121.5952016
793,4326,Oak Creek Brewery And Grill,Sedona,Arizona,336 Highway 179,86336-6144,United States,34.8616708,-111.7631779
794,210,Maplewood Farms Restaurant & Brewery,Amherst,Massachusetts,138 Belchertown Road,01002,United States,42.3696211,-72.49603309999999
795,414,Diamond Bear Brewing Company,North Little Rock,Arkansas,600 N Broadway St,72114-5381,United States,34.7592228,-92.2723106
796,686,Whale Tail Brew Pub,Old Orchard Beach,Maine,213 Saco Ave,04064-1322,United States,43.5083298,-70.4067039
797,18129,Cellar Rats Brewery,Madison,Ohio,7743 Doty Rd,44057,United States,41.7411537,-81.0108893
798,914,Lewis & Clark Brewing Company,Helena,Montana,1517 Dodge Ave,59601-2970,United States,46.6000928,-112.0219062
799,3273,Mountain Town Station Brewing Co. & Steakhouse,Mount Pleasant,Michigan,506 W Broadway St.,48858,United States,43.6050619,-84.7818961
800,2015,Golden Valley Brewery and Pub,McMinnville,Oregon,980 East 4th Street,97128,United States,45.210203,-123.1890125
801,15642,Flat Earth Brewing Company,Saint Paul,Minnesota,688 Minnehaha Ave E,55106,United States,44.9627463,-93.0716588
802,199,Ballast Point Brewing Company,San Diego,California,10051 Old Grove Road Suite B,92131,United States,32.8985252,-117.1109407
803,4834,"Courthouse Pub, The",Manitowoc,Wisconsin,1000 S. Eight Street,54220,United States,44.0888561,-87.65776919999999
804,477,Willimantic Brewing Co.,Willimantic,Connecticut,967 Main St,06226-2330,United States,41.7131714,-72.2171785
805,18564,Upslope Brewing Company,Boulder,Colorado,"1501 Lee Hill Road, Unit #20",80304,United States,40.0626246,-105.2787675
806,13423,Roosters Brewing Company and Restaurant,Layton,Utah,748 W Heritage Park Blvd Ste 101,84041-5724,United States,41.0834779,-111.9787978
807,13879,Riverside Brewery And Restaurant,West Bend,Wisconsin,255 South Main St.,53095,United States,43.4214851,-88.1810063
808,16878,Marshall Brewing Company,Tulsa,Oklahoma,1742 E 6th Street,74104-3214,United States,36.1519991,-95.9655525
809,1015,Red Car Brewery and Restaurant,Torrance,California,1266 Sartori Avenue,90501,United States,33.8356957,-118.3160353
810,2456,Sophisticated Otter Restaurant & Brewing Co.,Johnson City,Tennessee,400 Ashe St,37604-6704,United States,36.31320840000001,-82.35396229999999
811,451,Moat Mountain Smoke House & Brewing Co.,North Conway,New Hampshire,3378 White Mtn Hwy,03860-5189,United States,44.06846549999999,-71.1436401
812,16785,Fantail Brewing Company,Sturgis,Michigan,119 S. Nottawa St.,49091,United States,41.7982468,-85.4191408
813,16846,Block 15 Brewery & Restaurant,Corvallis,Oregon,300 SW Jefferson Ave,97333,United States,44.5622961,-123.2623256
814,696,Thomas Hooker Brewing Company,Bloomfield,Connecticut,16 Tobey Rd,06002-3522,United States,41.8091289,-72.7106859
815,13022,Rosie's Brewpub,Leadville,Colorado,115 East 7th Street,80461,United States,39.2495726,-106.291314
816,174,Latrobe Brewing Co.,Saint Louis,Missouri,1 Busch Pl,63118-1849,United States,38.5984672,-90.2099132
817,15324,Five Seasons North,Alpharetta,Georgia,3655 Old Milton Pkwy,30005,United States,34.0638068,-84.2527794
818,21567,Odin Brewing Company,Tukwila,Washington,402 Baker Blvd,98188,United States,47.4586647,-122.2521124
819,14967,Brau Brothers Brewing Co. LLC,Marshall,Minnesota,1010 E Southview Dr,56258-2401,United States,44.436301,-95.7764063
820,6266,Flagstaff Brewing Company,Flagstaff,Arizona,16 E Route 66,86001-5792,United States,35.197441,-111.6484643
821,24047,Crossroads Brewing Company,Athens,New York,21 2nd Street,12015,United States,42.2605704,-73.8100881
822,9869,Astoria Brewing Company / Wet Dog Cafe,Astoria,Oregon,144 11th St,97103,United States,46.1901859,-123.8314721
823,9563,Queen City Brewing Limited,Staunton,Virginia,834 Springhill Road,24401,United States,38.1616517,-79.0789149
824,25859,Lazy Monk Brewing,Eau Claire,Wisconsin,320 Putnam Street,54703,United States,44.8165437,-91.4962461
825,27276,The Rileys Brewing Company,Madera,California,28777 Avenue 15 1/2,93638-2316,United States,36.9745921,-120.022396
826,11494,Sonoma Chicken Coop,Campbell,California,200 E Campbell Ave,95008,United States,37.2868705,-121.9464336
827,25067,"Kysela Pere Et Fils, Ltd.",Winchester,Virginia,130 Windy Hill Lane,22602,United States,39.1571742,-78.1619656
828,5267,Humes Brewing Company,Glen Ellen,California,75 Cavedale Road,95442,United States,38.3377267,-122.4922579
829,16589,Spring House Brewing Company,Lancaster,Pennsylvania,209 Hazel St,17603,United States,40.0299714,-76.3083551
830,26918,Hilliard's Beer,Seattle,Washington,1550 NW 49th St,98107,United States,47.6645559,-122.3782808
831,10204,Zuma Brewing Company,Atlanta,Georgia,900 Wendell Ct SW,30336-1758,United States,33.7669366,-84.52052189999999
832,608,Rio Grande Brewing Company,Albuquerque,New Mexico,3760 Hawkins St NE,87109-4511,United States,35.1620536,-106.6015704
833,25208,Oakland Brewing Company,Oakland,California,1010 22nd Ave.,94606,United States,37.7819938,-122.2403733
834,2195,Huntington Beach Beer Company,Huntington Beach,California,201 Main Street,92648,United States,33.6583538,-118.0012023
835,1865,Southend Brewery & Smokehouse,Jacksonville,Florida,2 West Independent Drive,32272,United States,30.3248442,-81.6594975
836,20476,Fire Island Beer Company,Ocean Beach,New York,PO Box 546,11770,United States,40.6467664,-73.1570589
837,6244,Tuck's Brewery,Portland,Oregon,6689 SW Capital Hwy,97219,United States,45.476607,-122.7059276
838,5489,Big Bear Brewing Company,Coral Springs,Florida,1800 N. University Drive,33065,United States,26.2535333,-80.2536074
